stop_id,stop_name,stop_lat,stop_lon,A1,A2,A3,A4,stop_short_name,tts_stop_name,location_type,platform_code,parent_station,stop_code,stop_url,public_visible,jurisdiction,address,postal_code,locality,parish_id,parish_name,municipality_id,municipality_name,district_id,district_name,region_id,region_name,last_stop_update,has_pole,pole_material,has_shelter,shelter_code,shelter_maintainer,has_mupi,has_bench,has_trash_bin,has_lighting,has_electricity,docking_bay_type,last_infrastructure_maintenance,last_infrastructure_check,has_stop_sign,stop_sign_maintainer,has_pole_frame,shelter_frame_area_cm,has_pip_real_time,pip_real_time_code,has_h2oa_signage,has_schedules,has_network_map,last_schedules_maintenance,last_schedules_check,last_stop_sign_maintenance,last_stop_sign_check,has_sidewalk,sidewalk_type,has_tactile_schedules,stop_access_type,has_crosswalk,has_tactile_pavement,has_abusive_parking,has_audio_stop_info,wheelchair_boarding,last_accessibility_check,near_health_clinic,near_hospital,near_university,near_school,near_police_station,near_fire_station,near_shopping,near_historic_building,near_transit_office,light_rail,subway,train,boat,airport,bike_sharing,bike_parking,car_parking
010001,R Carlos M. R. Francisco 229 (Escola Monte Novo),38.754244,-8.959557,0,0,0,1,,Rua Carlos M. Rua Francisco 229 ( Escola Monte Novo ),0,,,010001,,1,,,,Alcochete,,,1502,Alcochete,15,Setúbal,PT170,AML,,,,,,,,,,,,,,,,,,,0,,,,,,,,,,,,,,,,,0,,0,0,0,0,0,0,0,0,0,0,0,0,0,0,0,0,0
010002,R Carlos M. R. Francisco 229 (Escola Monte Novo),38.754572,-8.959615,0,0,0,1,,Rua Carlos M. Rua Francisco 229 ( Escola Monte Novo ),0,,,010002,,1,,,,Alcochete,,,1502,Alcochete,15,Setúbal,PT170,AML,,,,,,,,,,,,,,,,,,,0,,,,,,,,,,,,,,,,,0,,0,0,0,0,0,0,0,0,0,0,0,0,0,0,0,0,0
010019,ALCOCH (AV INF D JOÃO) PRAIA MOINHOS,38.748365,-8.970791,0,0,0,1,,Álcochete ( Avenida Infante Dom João ) Praia Moinhos,0,,,010019,,1,,,,Alcochete,,,1502,Alcochete,15,Setúbal,PT170,AML,,,,,,,,,,,,,,,,,,,0,,,,,,,,,,,,,,,,,0,,0,0,0,0,0,0,0,0,0,0,0,0,0,0,0,0,0
010033,ALCOCHETE (R LÁPARO X R BRACIEIRA),38.748189,-8.951511,0,0,0,1,,Alcochete ( Cruzamento Entre ( Rua Láparo ) E ( Rua Bracieira ) ),0,,,010033,,1,,,,Alcochete,,,1502,Alcochete,15,Setúbal,PT170,AML,,,,,,,,,,,,,,,,,,,0,,,,,,,,,,,,,,,,,0,,0,0,0,0,0,0,0,0,0,0,0,0,0,0,0,0,0
010034,ALCOCHETE (R LÁPARO X R BRACIEIRA),38.748278,-8.951503,0,0,0,1,,Alcochete ( Cruzamento Entre ( Rua Láparo ) E ( Rua Bracieira ) ),0,,,010034,,1,,,,Alcochete,,,1502,Alcochete,15,Setúbal,PT170,AML,,,,,,,,,,,,,,,,,,,0,,,,,,,,,,,,,,,,,0,,0,0,0,0,0,0,0,0,0,0,0,0,0,0,0,0,0
010057,R FUTEBOL CLUBE S FRANC X R ANT ALEIXO 1,38.732284,-8.970956,0,0,0,1,,Cruzamento Entre ( Rua Futebol Clube São Francisco ) E ( Rua António Aleixo 1 ),0,,,010057,,1,,,,Alcochete,,,1502,Alcochete,15,Setúbal,PT170,AML,,,,,,,,,,,,,,,,,,,0,,,,,,,,,,,,,,,,,0,,0,0,0,0,0,0,0,0,0,0,0,0,0,0,0,0,0
010058,R FUTEBOL CLUBE S FRANC X R ANT ALEIXO 1,38.732255,-8.970549,0,0,0,1,,Cruzamento Entre ( Rua Futebol Clube São Francisco ) E ( Rua António Aleixo 1 ),0,,,010058,,1,,,,Alcochete,,,1502,Alcochete,15,Setúbal,PT170,AML,,,,,,,,,,,,,,,,,,,0,,,,,,,,,,,,,,,,,0,,0,0,0,0,0,0,0,0,0,0,0,0,0,0,0,0,0
010089,QTA PACHECA (EM 501) X R PACHECA,38.735989,-8.981469,0,0,0,1,,Cruzamento Entre ( Quinta Pacheca ( Estrada Municipal 501 ) ) E ( Rua Pacheca ),0,,,010089,,1,,,,Qta. da Pacheca,,,1502,Alcochete,15,Setúbal,PT170,AML,,,,,,,,,,,,,,,,,,,0,,,,,,,,,,,,,,,,,0,,0,0,0,0,0,0,0,0,0,0,0,0,0,0,0,0,0
010090,QTA PACHECA (EM 501) X R PACHECA,38.735783,-8.981473,0,0,0,1,,Cruzamento Entre ( Quinta Pacheca ( Estrada Municipal 501 ) ) E ( Rua Pacheca ),0,,,010090,,1,,,,Qta. da Pacheca,,,1502,Alcochete,15,Setúbal,PT170,AML,,,,,,,,,,,,,,,,,,,0,,,,,,,,,,,,,,,,,0,,0,0,0,0,0,0,0,0,0,0,0,0,0,0,0,0,0
010091,EM 501 (VIAD PT VASCO GAMA) EST SERVIÇO,38.728153,-8.991644,0,0,0,1,,Estrada Municipal 501 ( Viaduto Ponte Vasco Gama ) ( Estação ) Serviço,0,,,010091,,1,,,,Alcochete,,,1502,Alcochete,15,Setúbal,PT170,AML,,,,,,,,,,,,,,,,,,,0,,,,,,,,,,,,,,,,,0,,0,0,0,0,0,0,0,0,0,0,0,0,0,0,0,0,0
010092,EM 501 (VIAD PT VASCO GAMA) EST SERVIÇO,38.728098,-8.991504,0,0,0,1,,Estrada Municipal 501 ( Viaduto Ponte Vasco Gama ) ( Estação ) Serviço,0,,,010092,,1,,,,Alcochete,,,1502,Alcochete,15,Setúbal,PT170,AML,,,,,,,,,,,,,,,,,,,0,,,,,,,,,,,,,,,,,0,,0,0,0,0,0,0,0,0,0,0,0,0,0,0,0,0,0
010093,SAMOUCO (EM 501) PORTO VELHO FÁB BOLOS,38.723370,-8.994983,0,0,0,1,,Sámouco ( Estrada Municipal 501 ) Porto Velho Fábrica Bolos,0,,,010093,,1,,,,Samouco,,,1502,Alcochete,15,Setúbal,PT170,AML,,,,,,,,,,,,,,,,,,,0,,,,,,,,,,,,,,,,,0,,0,0,0,0,0,0,0,0,0,0,0,0,0,0,0,0,0
010094,SAMOUCO (EM 501) PORTO VELHO FÁB BOLOS,38.723261,-8.994897,0,0,0,1,,Sámouco ( Estrada Municipal 501 ) Porto Velho Fábrica Bolos,0,,,010094,,1,,,,Samouco,,,1502,Alcochete,15,Setúbal,PT170,AML,,,,,,,,,,,,,,,,,,,0,,,,,,,,,,,,,,,,,0,,0,0,0,0,0,0,0,0,0,0,0,0,0,0,0,0,0
010095,SAMOUCO (EM 501) BAIRRO NOVO 210,38.722196,-8.998414,0,0,0,1,,Sámouco ( Estrada Municipal 501 ) Bairro Novo 210,0,,,010095,,1,,,,Samouco,,,1502,Alcochete,15,Setúbal,PT170,AML,,,,,,,,,,,,,,,,,,,0,,,,,,,,,,,,,,,,,0,,0,0,0,0,0,0,0,0,0,0,0,0,0,0,0,0,0
010096,SAMOUCO (EM 501) BAIRRO NOVO 210,38.722084,-8.998532,0,0,0,1,,Sámouco ( Estrada Municipal 501 ) Bairro Novo 210,0,,,010096,,1,,,,Samouco,,,1502,Alcochete,15,Setúbal,PT170,AML,,,,,,,,,,,,,,,,,,,0,,,,,,,,,,,,,,,,,0,,0,0,0,0,0,0,0,0,0,0,0,0,0,0,0,0,0
010097,SAMOUCO (EM 501 46),38.721525,-9.000315,0,0,0,1,,Sámouco ( Estrada Municipal 501 46 ),0,,,010097,,1,,,,Samouco,,,1502,Alcochete,15,Setúbal,PT170,AML,,,,,,,,,,,,,,,,,,,0,,,,,,,,,,,,,,,,,0,,0,0,0,0,0,0,0,0,0,0,0,0,0,0,0,0,0
010098,SAMOUCO (EM 501 46),38.721444,-9.000258,0,0,0,1,,Sámouco ( Estrada Municipal 501 46 ),0,,,010098,,1,,,,Samouco,,,1502,Alcochete,15,Setúbal,PT170,AML,,,,,,,,,,,,,,,,,,,0,,,,,,,,,,,,,,,,,0,,0,0,0,0,0,0,0,0,0,0,0,0,0,0,0,0,0
010099,SAMOUCO (PRAÇA DA REPÚBLICA),38.720601,-9.004456,0,0,0,1,,Sámouco ( Praça Da República ),0,,,010099,,1,,,,Samouco,,,1502,Alcochete,15,Setúbal,PT170,AML,,,,,,,,,,,,,,,,,,,1,101,,,,,,,,,,,,,,,,0,,0,0,0,0,0,0,0,0,0,0,0,0,0,0,0,0,0
010101,SAMOUCO (R CONSTITUIÇÃO 11),38.720279,-9.001736,0,0,0,1,,Sámouco ( Rua Constituição 11 ),0,,,010101,,1,,,,Samouco,,,1502,Alcochete,15,Setúbal,PT170,AML,,,,,,,,,,,,,,,,,,,0,,,,,,,,,,,,,,,,,0,,0,0,0,0,0,0,0,0,0,0,0,0,0,0,0,0,0
010103,SAMOUCO (R DR MANUEL DA CRUZ JÚNIOR 15),38.720766,-9.000303,0,0,0,1,,Sámouco ( Rua Doutor Manuel Da Cruz Júnior 15 ),0,,,010103,,1,,,,Samouco,,,1502,Alcochete,15,Setúbal,PT170,AML,,,,,,,,,,,,,,,,,,,0,,,,,,,,,,,,,,,,,0,,0,0,0,0,0,0,0,0,0,0,0,0,0,0,0,0,0
010115,R ANT RODRIGUES DIAS (X) EN4 (QTA MORGADO),38.707531,-8.914769,0,0,0,1,,Cruzamento Entre ( Rua António Rodrigues Dias ) E ( Estrada Nacional 4 ( Quinta Morgado ) ),0,,,010115,,1,,,,Alcochete,,,1502,Alcochete,15,Setúbal,PT170,AML,,,,,,,,,,,,,,,,,,,0,,,,,,,,,,,,,,,,,0,,0,0,0,0,0,0,0,0,0,0,0,0,0,0,0,0,0
010116,R ANT RODRIGUES DIAS (X) EN4 (QTA MORGADO),38.707325,-8.914608,0,0,0,1,,Cruzamento Entre ( Rua António Rodrigues Dias ) E ( Estrada Nacional 4 ( Quinta Morgado ) ),0,,,010116,,1,,,,Alcochete,,,1502,Alcochete,15,Setúbal,PT170,AML,,,,,,,,,,,,,,,,,,,0,,,,,,,,,,,,,,,,,0,,0,0,0,0,0,0,0,0,0,0,0,0,0,0,0,0,0
010119,EN 4 ANTES VIADUTO A12,38.707923,-8.905727,0,0,0,1,,Estrada Nacional 4 Antes Viaduto Á 12,0,,,010119,,1,,,,Alcochete,,,1502,Alcochete,15,Setúbal,PT170,AML,,,,,,,,,,,,,,,,,,,0,,,,,,,,,,,,,,,,,0,,0,0,0,0,0,0,0,0,0,0,0,0,0,0,0,0,0
010120,EN 4 ANTES VIADUTO A12,38.707814,-8.905808,0,0,0,1,,Estrada Nacional 4 Antes Viaduto Á 12,0,,,010120,,1,,,,Alcochete,,,1502,Alcochete,15,Setúbal,PT170,AML,,,,,,,,,,,,,,,,,,,0,,,,,,,,,,,,,,,,,0,,0,0,0,0,0,0,0,0,0,0,0,0,0,0,0,0,0
010121,R DO ACEIRO X EN 4,38.709056,-8.898717,0,0,0,1,,Cruzamento Entre ( Rua Do Aceiro ) E ( Estrada Nacional 4 ),0,,,010121,,1,,,,Alcochete,,,1502,Alcochete,15,Setúbal,PT170,AML,,,,,,,,,,,,,,,,,,,0,,,,,,,,,,,,,,,,,0,,0,0,0,0,0,0,0,0,0,0,0,0,0,0,0,0,0
010122,R DO ACEIRO X EN 4,38.709301,-8.898597,0,0,0,1,,Cruzamento Entre ( Rua Do Aceiro ) E ( Estrada Nacional 4 ),0,,,010122,,1,,,,Alcochete,,,1502,Alcochete,15,Setúbal,PT170,AML,,,,,,,,,,,,,,,,,,,0,,,,,,,,,,,,,,,,,0,,0,0,0,0,0,0,0,0,0,0,0,0,0,0,0,0,0
010129,ESTR CHARNEQUINHA X EN 5,38.675322,-8.911339,0,0,0,1,,Cruzamento Entre ( Estrada Charnequinha ) E ( Estrada Nacional 5 ),0,,,010129,,1,,,,Alcochete,,,1502,Alcochete,15,Setúbal,PT170,AML,,,,,,,,,,,,,,,,,,,0,,,,,,,,,,,,,,,,,0,,0,0,0,0,0,0,0,0,0,0,0,0,0,0,0,0,0
010139,AV CANTO DO PINHEIROXR FERNANDO PESSOA,38.755532,-8.950663,0,0,0,1,,Cruzamento Entre ( Avenida Canto Do Pinheiro ) E ( Rua Fernando Pessoa ),0,,,010139,,1,,,,Alcochete,,,1502,Alcochete,15,Setúbal,PT170,AML,,,,,,,,,,,,,,,,,,,0,,,,,,,,,,,,,,,,,0,,0,0,0,0,0,0,0,0,0,0,0,0,0,0,0,0,0
010140,AV CANTO DO PINHEIROXR FERNANDO PESSOA,38.755596,-8.950482,0,0,0,1,,Cruzamento Entre ( Avenida Canto Do Pinheiro ) E ( Rua Fernando Pessoa ),0,,,010140,,1,,,,Alcochete,,,1502,Alcochete,15,Setúbal,PT170,AML,,,,,,,,,,,,,,,,,,,0,,,,,,,,,,,,,,,,,0,,0,0,0,0,0,0,0,0,0,0,0,0,0,0,0,0,0
010141,ALCOCHETE (R MARIA LAMAS LT1),38.753306,-8.955895,0,0,0,1,,Alcochete ( Rua Maria Lamas Lóte 1 ),0,,,010141,,1,,,,Alcochete,,,1502,Alcochete,15,Setúbal,PT170,AML,,,,,,,,,,,,,,,,,,,0,,,,,,,,,,,,,,,,,0,,0,0,0,0,0,0,0,0,0,0,0,0,0,0,0,0,0
010142,ALCOCHETE (R MARIA LAMAS LT1),38.753284,-8.956831,0,0,0,1,,Alcochete ( Rua Maria Lamas Lóte 1 ),0,,,010142,,1,,,,Alcochete,,,1502,Alcochete,15,Setúbal,PT170,AML,,,,,,,,,,,,,,,,,,,0,,,,,,,,,,,,,,,,,0,,0,0,0,0,0,0,0,0,0,0,0,0,0,0,0,0,0
010143,R 25 ABRIL (EM501) X PASSEIO CARAVELAS,38.746564,-8.970576,0,0,0,1,,Cruzamento Entre ( Rua 25 Abril ( Estrada Municipal 501 ) ) E ( Passeio Caravelas ),0,,,010143,,1,,,,Alcochete,,,1502,Alcochete,15,Setúbal,PT170,AML,,,,,,,,,,,,,,,,,,,0,,,,,,,,,,,,,,,,,0,,0,0,0,0,0,0,0,0,0,0,0,0,0,0,0,0,0
010145,EM 501 X EST DOS CANAVIAIS,38.742415,-8.974439,0,0,0,1,,Cruzamento Entre ( Estrada Municipal 501 ) E ( ( Estação ) Dos Canaviais ),0,,,010145,,1,,,,Alcochete,,,1502,Alcochete,15,Setúbal,PT170,AML,,,,,,,,,,,,,,,,,,,0,,,,,,,,,,,,,,,,,0,,0,0,0,0,0,0,0,0,0,0,0,0,0,0,0,0,0
010146,EM 501 X EST DOS CANAVIAIS,38.741912,-8.974646,0,0,0,1,,Cruzamento Entre ( Estrada Municipal 501 ) E ( ( Estação ) Dos Canaviais ),0,,,010146,,1,,,,Alcochete,,,1502,Alcochete,15,Setúbal,PT170,AML,,,,,,,,,,,,,,,,,,,0,,,,,,,,,,,,,,,,,0,,0,0,0,0,0,0,0,0,0,0,0,0,0,0,0,0,0
010147,R 25 ABRIL (EM501) X PASSEIO CARAVELAS,38.746529,-8.970179,0,0,0,1,,Cruzamento Entre ( Rua 25 Abril ( Estrada Municipal 501 ) ) E ( Passeio Caravelas ),0,,,010147,,1,,,,Alcochete,,,1502,Alcochete,15,Setúbal,PT170,AML,,,,,,,,,,,,,,,,,,,0,,,,,,,,,,,,,,,,,0,,0,0,0,0,0,0,0,0,0,0,0,0,0,0,0,0,0
010149,EN4 X ACADEMIA SPORTING,38.715275,-8.857943,0,0,0,1,,Cruzamento Entre ( Estrada Nacional 4 ) E ( Academia Sporting ),0,,,010149,,1,,,,Alcochete,,,1502,Alcochete,15,Setúbal,PT170,AML,,,,,,,,,,,,,,,,,,,0,,,,,,,,,,,,,,,,,0,,0,0,0,0,0,0,0,0,0,0,0,0,0,0,0,0,0
010150,EN4 X ACADEMIA SPORTING,38.715162,-8.857896,0,0,0,1,,Cruzamento Entre ( Estrada Nacional 4 ) E ( Academia Sporting ),0,,,010150,,1,,,,Alcochete,,,1502,Alcochete,15,Setúbal,PT170,AML,,,,,,,,,,,,,,,,,,,0,,,,,,,,,,,,,,,,,0,,0,0,0,0,0,0,0,0,0,0,0,0,0,0,0,0,0
020005,Costa Caparica (Terminal P1),38.644700,-9.241040,0,1,0,0,,Costa Da Caparíca ( Terminal ( P 1 ) ),0,,,020005,,1,,,,Costa da Caparica,,,1503,Almada,15,Setúbal,PT170,AML,,,,,,,,,,,,,,,,,,,0,,,,,,,,,,,,,,,,,0,,0,0,0,0,0,0,0,0,0,0,0,0,0,0,0,0,0
020006,Costa Caparica (Terminal P1),38.644800,-9.241020,0,1,0,0,,Costa Da Caparíca ( Terminal ( P 1 ) ),0,,,020006,,1,,,,Costa da Caparica,,,1503,Almada,15,Setúbal,PT170,AML,,,,,,,,,,,,,,,,,,,0,,,,,,,,,,,,,,,,,0,,0,0,0,0,0,0,0,0,0,0,0,0,0,0,0,0,0
020007,Costa Caparica (Terminal P1),38.644300,-9.240650,0,1,0,0,,Costa Da Caparíca ( Terminal ( P 1 ) ),0,,,020007,,1,,,,Costa da Caparica,,,1503,Almada,15,Setúbal,PT170,AML,,,,,,,,,,,,,,,,,,,0,,,,,,,,,,,,,,,,,0,,0,0,0,0,0,0,0,0,0,0,0,0,0,0,0,0,0
020013,ALMADA (AV CRISTO REI N41),38.677330,-9.167410,0,0,1,0,,Almada ( Avenida Cristo Rei ( Número 41 ) ),0,,,020013,,1,,,,Almada,,,1503,Almada,15,Setúbal,PT170,AML,,,,,,,,,,,,,,,,,,,0,,,,,,,,,,,,,,,,,0,,0,0,0,0,0,0,0,0,0,0,0,0,0,0,0,0,0
020014,ALMADA (AV CRISTO REI N41),38.677430,-9.167440,0,0,1,0,,Almada ( Avenida Cristo Rei ( Número 41 ) ),0,,,020014,,1,,,,Almada,,,1503,Almada,15,Setúbal,PT170,AML,,,,,,,,,,,,,,,,,,,0,,,,,,,,,,,,,,,,,0,,0,0,0,0,0,0,0,0,0,0,0,0,0,0,0,0,0
020015,ALMADA (AV CRISTO REI N17B),38.678180,-9.165260,0,0,1,0,,Almada ( Avenida Cristo Rei ( Número 17 B ) ),0,,,020015,,1,,,,Almada,,,1503,Almada,15,Setúbal,PT170,AML,,,,,,,,,,,,,,,,,,,0,,,,,,,,,,,,,,,,,0,,0,0,0,0,0,0,0,0,0,0,0,0,0,0,0,0,0
020017,ALMADA (LGO INF D ANTÓNIO N2),38.678700,-9.163380,0,0,1,0,,Almada ( Largo Infante Dom António ( Número 2 ) ),0,,,020017,,1,,,,Almada,,,1503,Almada,15,Setúbal,PT170,AML,,,,,,,,,,,,,,,,,,,0,,,,,,,,,,,,,,,,,0,,0,0,0,0,0,0,0,0,0,0,0,0,0,0,0,0,0
020019,ALMADA (R CAPITÃO LEITÃO N107),38.678900,-9.161190,0,0,1,0,,Almada ( Rua Capitão Leitão ( Número 107 ) ),0,,,020019,,1,,,,Almada,,,1503,Almada,15,Setúbal,PT170,AML,,,,,,,,,,,,,,,,,,,0,,,,,,,,,,,,,,,,,0,,0,0,0,0,0,0,0,0,0,0,0,0,0,0,0,0,0
020021,ALMADA (R CAPITÃO LEITÃO N79),38.680500,-9.160040,0,0,1,0,,Almada ( Rua Capitão Leitão ( Número 79 ) ),0,,,020021,,1,,,,Almada,,,1503,Almada,15,Setúbal,PT170,AML,,,,,,,,,,,,,,,,,,,0,,,,,,,,,,,,,,,,,0,,0,0,0,1,0,0,0,0,0,0,0,0,0,0,0,0,0
020023,ALMADA (R CAPITÃO LEITÃO N43A),38.681600,-9.159500,0,0,1,0,,Almada ( Rua Capitão Leitão ( Número 43 Á ) ),0,,,020023,,1,,,,Almada,,,1503,Almada,15,Setúbal,PT170,AML,,,,,,,,,,,,,,,,,,,0,,,,,,,,,,,,,,,,,0,,0,0,0,1,0,0,0,0,0,0,0,0,0,0,0,0,0
020025,ALMADA (R CAPITÃO LEITÃO N3B),38.682900,-9.157810,0,0,1,0,,Almada ( Rua Capitão Leitão ( Número 3 B ) ),0,,,020025,,1,,,,Alenquer,,,1503,Almada,15,Setúbal,PT170,AML,,,,,,,,,,,,,,,,,,,0,,,,,,,,,,,,,,,,,0,,0,0,0,0,0,0,0,0,0,0,0,0,0,0,0,0,0
020033,CACILHAS AV 25 ABRIL 45C (SEG SOCIAL),38.684000,-9.150130,0,0,1,0,,Cacilhas Avenida 25 Abril 45 Cê ( Segurança Social ),0,,,020033,,1,,,,Cacilhas,,,1503,Almada,15,Setúbal,PT170,AML,,,,,,,,,,,,,,,,,,,0,,,,,,,,,,,,,,,,,0,,0,0,0,1,0,0,0,0,0,0,0,0,0,0,0,0,0
020035,CACILHAS (AV 25 ABRIL N3A),38.684880,-9.147380,0,0,1,0,,Cacilhas ( Avenida 25 Abril ( Número 3 Á ) ),0,,,020035,,1,,,,Cacilhas,,,1503,Almada,15,Setúbal,PT170,AML,,,,,,,,,,,,,,,,,,,0,,,,,,,,,,,,,,,,,0,,0,0,0,0,0,0,0,0,0,0,0,0,0,0,0,0,0
020037,Cacilhas (Terminal) P5,38.687818,-9.146908,0,0,1,0,,Cacilhas ( Terminal ) ( P 5 ),0,,,020037,,1,,,,Cacilhas,,,1503,Almada,15,Setúbal,PT170,AML,,,,,,,,,,,,,,,,,,,1,123,,,,,,,,,,,,,,,,0,,0,0,0,0,0,0,0,0,0,0,0,0,0,0,0,0,0
020039,CACILHAS (AV 25 ABRIL N6),38.685060,-9.147830,0,0,1,0,,Cacilhas ( Avenida 25 Abril ( Número 6 ) ),0,,,020039,,1,,,,Cacilhas,,,1503,Almada,15,Setúbal,PT170,AML,,,,,,,,,,,,,,,,,,,0,,,,,,,,,,,,,,,,,0,,0,0,0,0,0,0,0,0,0,0,0,0,0,0,0,0,0
020041,CACILHAS (AV 25 ABRIL N30),38.684150,-9.150350,0,0,1,0,,Cacilhas ( Avenida 25 Abril ( Número 30 ) ),0,,,020041,,1,,,,Cacilhas,,,1503,Almada,15,Setúbal,PT170,AML,,,,,,,,,,,,,,,,,,,0,,,,,,,,,,,,,,,,,0,,0,0,0,1,0,0,0,0,0,0,0,0,0,0,0,0,0
020047,AV D NUNO ÁLV PEREIRA PÇA S J BAPTISTA,38.679750,-9.157390,0,0,1,0,,Avenida Dom Nuno Álvares Pereira Práça São João Baptista,0,,,020047,,1,,,,Almada,,,1503,Almada,15,Setúbal,PT170,AML,,,,,,,,,,,,,,,,,,,1,116,,,,,,,,,,,,,,,,0,,0,0,0,1,0,0,0,0,0,0,0,0,0,0,0,0,0
020049,ALMADA (R MENDO G SEABRA N3B),38.679530,-9.160110,0,0,1,0,,Almada ( Rua Mendo G Seabra ( Número 3 B ) ),0,,,020049,,1,,,,Almada,,,1503,Almada,15,Setúbal,PT170,AML,,,,,,,,,,,,,,,,,,,0,,,,,,,,,,,,,,,,,0,,0,0,0,1,0,0,0,0,0,0,0,0,0,0,0,0,0
020051,ALMADA (R MANUEL S COUTINHO N5),38.680900,-9.161660,0,0,1,0,,Almada ( Rua Manuel São Coutinho ( Número 5 ) ),0,,,020051,,1,,,,Almada,,,1503,Almada,15,Setúbal,PT170,AML,,,,,,,,,,,,,,,,,,,0,,,,,,,,,,,,,,,,,0,,0,0,0,1,0,0,0,0,0,0,0,0,0,0,0,0,0
020059,ALMADA (PÇA S JOÃO BAPTISTA N3),38.679100,-9.156790,0,0,1,0,,Almada ( Práça São João Baptista ( Número 3 ) ),0,,,020059,,1,,,,Almada,,,1503,Almada,15,Setúbal,PT170,AML,,,,,,,,,,,,,,,,,,,0,,,,,,,,,,,,,,,,,0,,0,0,0,1,0,0,0,0,0,0,0,0,0,0,0,0,0
020063,ALMADA (R CAETANO M BATALHA N9),38.675680,-9.163800,0,0,1,0,,Almada ( Rua Caetano M Batalha ( Número 9 ) ),0,,,020063,,1,,,,Almada,,,1503,Almada,15,Setúbal,PT170,AML,,,,,,,,,,,,,,,,,,,0,,,,,,,,,,,,,,,,,0,,0,0,0,1,0,0,0,0,0,0,0,0,0,0,0,0,0
020064,ALMADA (R CAETANO M BATALHA N9),38.675720,-9.163820,0,0,1,0,,Almada ( Rua Caetano M Batalha ( Número 9 ) ),0,,,020064,,1,,,,Almada,,,1503,Almada,15,Setúbal,PT170,AML,,,,,,,,,,,,,,,,,,,0,,,,,,,,,,,,,,,,,0,,0,0,0,1,0,0,0,0,0,0,0,0,0,0,0,0,0
020065,COVA PIEDADE R LIBERDADE 56C (URPICA),38.674200,-9.161780,0,0,1,0,,Cova Piedade Rua Liberdade 56 Cê ( Urpica ),0,,,020065,,1,,,,Cova da Piedade,,,1503,Almada,15,Setúbal,PT170,AML,,,,,,,,,,,,,,,,,,,0,,,,,,,,,,,,,,,,,0,,0,0,0,1,0,0,0,0,0,0,0,0,0,0,0,0,0
020066,COVA PIEDADE R LIBERDADE 56C (URPICA),38.674184,-9.161872,0,0,1,0,,Cova Piedade Rua Liberdade 56 Cê ( Urpica ),0,,,020066,,1,,,,Cova da Piedade,,,1503,Almada,15,Setúbal,PT170,AML,,,,,,,,,,,,,,,,,,,0,,,,,,,,,,,,,,,,,0,,0,0,0,1,0,0,0,0,0,0,0,0,0,0,0,0,0
020069,COVA PIEDADE AV 23 JUL (X) ESTR BREJO,38.669000,-9.159260,0,0,1,0,,Cova Piedade ( Cruzamento Entre ( Avenida 23 Julho ) E ( Estrada Brejo ) ),0,,,020069,,1,,,,Cova da Piedade,,,1503,Almada,15,Setúbal,PT170,AML,,,,,,,,,,,,,,,,,,,1,126,,,,,,,,,,,,,,,,0,,0,0,0,1,0,0,0,0,0,0,0,0,0,0,0,0,0
020071,CV PIEDADE R SAMEIRO ANTUNES FARMÁCIA,38.668050,-9.164660,0,0,1,0,,Cóva Piedade Rua Sameiro Antunes Farmácia,0,,,020071,,1,,,,Almada,,,1503,Almada,15,Setúbal,PT170,AML,,,,,,,,,,,,,,,,,,,1,131,,,,,,,,,,,,,,,,0,,0,0,0,0,0,0,0,0,0,0,0,0,0,0,0,0,0
020072,CV PIEDADE R SAMEIRO ANTUNES FARMÁCIA,38.667830,-9.164660,0,0,1,0,,Cóva Piedade Rua Sameiro Antunes Farmácia,0,,,020072,,1,,,,Almada,,,1503,Almada,15,Setúbal,PT170,AML,,,,,,,,,,,,,,,,,,,0,,,,,,,,,,,,,,,,,0,,0,0,0,0,0,0,0,0,0,0,0,0,0,0,0,0,0
020073,PRAGAL (AV JOSE C PIRES) ESTAÇÃO,38.666696,-9.179479,0,0,1,0,,Pragal ( Avenida Jose Cê Pires ) Estação,0,,,020073,,1,,,,Pragal,,,1503,Almada,15,Setúbal,PT170,AML,,,,,,,,,,,,,,,,,,,0,,,,,,,,,,,,,,,,,0,,0,0,0,1,0,0,0,0,0,0,0,0,0,0,0,0,0
020085,ALMADA (PÇA S JOÃO BAPTISTA) JUNTO CGD,38.679000,-9.157770,0,0,1,0,,Almada ( Práça São João Baptista ) Junto Banco,0,,,020085,,1,,,,Almada,,,1503,Almada,15,Setúbal,PT170,AML,,,,,,,,,,,,,,,,,,,0,,,,,,,,,,,,,,,,,0,,0,0,0,1,0,0,0,0,0,0,0,0,0,0,0,0,0
020089,FEIJÓ (R ANTÓNIO ALEIXO N6),38.656950,-9.163000,0,0,1,0,,Feijó ( Rua António Aleixo ( Número 6 ) ),0,,,020089,,1,,,,Feijó,,,1503,Almada,15,Setúbal,PT170,AML,,,,,,,,,,,,,,,,,,,0,,,,,,,,,,,,,,,,,0,,0,0,0,0,0,0,0,0,0,0,0,0,0,0,0,0,0
020090,FEIJÓ (R ANTÓNIO ALEIXO N6),38.656870,-9.163080,0,0,1,0,,Feijó ( Rua António Aleixo ( Número 6 ) ),0,,,020090,,1,,,,Feijó,,,1503,Almada,15,Setúbal,PT170,AML,,,,,,,,,,,,,,,,,,,0,,,,,,,,,,,,,,,,,0,,0,0,0,0,0,0,0,0,0,0,0,0,0,0,0,0,0
020097,Bº GONÇALVES R ALM NEG 4 (ESCOLA),38.662300,-9.163370,0,0,1,0,,Bairro Gonçalves Rua Almáda Negreiros 4 ( Escola ),0,,,020097,,1,,,,Almada,,,1503,Almada,15,Setúbal,PT170,AML,,,,,,,,,,,,,,,,,,,0,,,,,,,,,,,,,,,,,0,,0,0,0,0,0,0,0,0,0,0,0,0,0,0,0,0,0
020098,Bº GONÇALVES R ALM NEG 4 (ESCOLA),38.662300,-9.163500,0,0,1,0,,Bairro Gonçalves Rua Almáda Negreiros 4 ( Escola ),0,,,020098,,1,,,,Almada,,,1503,Almada,15,Setúbal,PT170,AML,,,,,,,,,,,,,,,,,,,0,,,,,,,,,,,,,,,,,0,,0,0,0,0,0,0,0,0,0,0,0,0,0,0,0,0,0
020101,COVA PIEDADE (R CABO B ESPERANÇA 7A),38.671100,-9.160890,0,0,1,0,,Cova Piedade ( Rua Cabo B Esperança 7 Á ),0,,,020101,,1,,,,Cova da Piedade,,,1503,Almada,15,Setúbal,PT170,AML,,,,,,,,,,,,,,,,,,,0,,,,,,,,,,,,,,,,,0,,0,0,0,0,0,0,0,0,0,0,0,0,0,0,0,0,0
020111,ALMADA (R D SANCHO I N25A),38.679620,-9.152940,0,0,1,0,,Almada ( Rua Dom Sancho Primeiro ( Número 25 Á ) ),0,,,020111,,1,,,,Almada,,,1503,Almada,15,Setúbal,PT170,AML,,,,,,,,,,,,,,,,,,,0,,,,,,,,,,,,,,,,,0,,0,0,0,1,0,0,0,0,0,0,0,0,0,0,0,0,0
020112,ALMADA (R D SANCHO I N25A),38.679580,-9.152820,0,0,1,0,,Almada ( Rua Dom Sancho Primeiro ( Número 25 Á ) ),0,,,020112,,1,,,,Almada,,,1503,Almada,15,Setúbal,PT170,AML,,,,,,,,,,,,,,,,,,,0,,,,,,,,,,,,,,,,,0,,0,0,0,1,0,0,0,0,0,0,0,0,0,0,0,0,0
020113,Cacilhas (Terminal) P9,38.687812,-9.147031,0,0,1,0,,Cacilhas ( Terminal ) ( P 9 ),0,,,020113,,1,,,,Cacilhas,,,1503,Almada,15,Setúbal,PT170,AML,,,,,,,,,,,,,,,,,,,1,123,,,,,,,,,,,,,,,,0,,0,0,0,0,0,0,0,0,0,0,0,0,0,0,0,0,0
020123,VL FLORES (R V FLORES 45A) ESC PRIMÁRIA,38.653100,-9.173920,0,0,1,0,,Vale Flores ( Rua Quinta Flores 45 Á ) Escola Primária,0,,,020123,,1,,,,Almada,,,1503,Almada,15,Setúbal,PT170,AML,,,,,,,,,,,,,,,,,,,0,,,,,,,,,,,,,,,,,0,,0,0,0,0,0,0,0,0,0,0,0,0,0,0,0,0,0
020124,VL FLORES (R V FLORES 45A) ESC PRIMÁRIA,38.653130,-9.174050,0,0,1,0,,Vale Flores ( Rua Quinta Flores 45 Á ) Escola Primária,0,,,020124,,1,,,,Vale Flores,,,1503,Almada,15,Setúbal,PT170,AML,,,,,,,,,,,,,,,,,,,0,,,,,,,,,,,,,,,,,0,,0,0,0,0,0,0,0,0,0,0,0,0,0,0,0,0,0
020127,VALE FLORES (R V FLORES N93),38.649920,-9.172810,0,0,1,0,,Vale Flores ( Rua Quinta Flores ( Número 93 ) ),0,,,020127,,1,,,,Vale Flores,,,1503,Almada,15,Setúbal,PT170,AML,,,,,,,,,,,,,,,,,,,0,,,,,,,,,,,,,,,,,0,,0,0,0,0,0,0,0,0,0,0,0,0,0,0,0,0,0
020128,VALE FLORES (R V FLORES N93),38.649880,-9.172910,0,0,1,0,,Vale Flores ( Rua Quinta Flores ( Número 93 ) ),0,,,020128,,1,,,,Vale Flores,,,1503,Almada,15,Setúbal,PT170,AML,,,,,,,,,,,,,,,,,,,0,,,,,,,,,,,,,,,,,0,,0,0,0,0,0,0,0,0,0,0,0,0,0,0,0,0,0
020131,VALE FLORES (R V FLORES N4),38.646800,-9.171570,0,0,1,0,,Vale Flores ( Rua Quinta Flores ( Número 4 ) ),0,,,020131,,1,,,,Vale Flores,,,1503,Almada,15,Setúbal,PT170,AML,,,,,,,,,,,,,,,,,,,0,,,,,,,,,,,,,,,,,0,,0,0,0,0,0,0,0,0,0,0,0,0,0,0,0,0,0
020132,VALE FLORES (R V FLORES N4),38.646790,-9.171720,0,0,1,0,,Vale Flores ( Rua Quinta Flores ( Número 4 ) ),0,,,020132,,1,,,,Vale Flores,,,1503,Almada,15,Setúbal,PT170,AML,,,,,,,,,,,,,,,,,,,0,,,,,,,,,,,,,,,,,0,,0,0,0,0,0,0,0,0,0,0,0,0,0,0,0,0,0
020133,VALE FLORES (R PITEIRA SANTOS 5A) Z INDUST,38.646380,-9.169364,0,0,1,0,,Vale Flores ( Rua Piteira Santos 5 Á ) Zona Industrial,0,,,020133,,1,,,,Vale Flores,,,1503,Almada,15,Setúbal,PT170,AML,,,,,,,,,,,,,,,,,,,0,,,,,,,,,,,,,,,,,0,,0,0,0,0,0,0,0,0,0,0,0,0,0,0,0,0,0
020134,VALE FLORES (R PITEIRA SANTOS 5A) Z INDUST,38.646300,-9.169400,0,0,1,0,,Vale Flores ( Rua Piteira Santos 5 Á ) Zona Industrial,0,,,020134,,1,,,,Vale Flores,,,1503,Almada,15,Setúbal,PT170,AML,,,,,,,,,,,,,,,,,,,0,,,,,,,,,,,,,,,,,0,,0,0,0,0,0,0,0,0,0,0,0,0,0,0,0,0,0
020141,R HENRIQUE ALVES X R POVO,38.643970,-9.182020,0,0,1,0,,Cruzamento Entre ( Rua Henrique Alves ) E ( Rua Povo ),0,,,020141,,1,,,,Almada,,,1503,Almada,15,Setúbal,PT170,AML,,,,,,,,,,,,,,,,,,,0,,,,,,,,,,,,,,,,,0,,0,0,0,0,0,0,0,0,0,0,0,0,0,0,0,0,0
020142,R HENRIQUE ALVES X R POVO,38.643860,-9.181970,0,0,1,0,,Cruzamento Entre ( Rua Henrique Alves ) E ( Rua Povo ),0,,,020142,,1,,,,Almada,,,1503,Almada,15,Setúbal,PT170,AML,,,,,,,,,,,,,,,,,,,0,,,,,,,,,,,,,,,,,0,,0,0,0,0,0,0,0,0,0,0,0,0,0,0,0,0,0
020143,R HENRIQUE ALVES X R POVO,38.643400,-9.182400,0,0,1,0,,Cruzamento Entre ( Rua Henrique Alves ) E ( Rua Povo ),0,,,020143,,1,,,,Almada,,,1503,Almada,15,Setúbal,PT170,AML,,,,,,,,,,,,,,,,,,,0,,,,,,,,,,,,,,,,,0,,0,0,0,0,0,0,0,0,0,0,0,0,0,0,0,0,0
020144,R HENRIQUE ALVES X R POVO,38.643400,-9.182490,0,0,1,0,,Cruzamento Entre ( Rua Henrique Alves ) E ( Rua Povo ),0,,,020144,,1,,,,Almada,,,1503,Almada,15,Setúbal,PT170,AML,,,,,,,,,,,,,,,,,,,0,,,,,,,,,,,,,,,,,0,,0,0,0,0,0,0,0,0,0,0,0,0,0,0,0,0,0
020145,VALE FIGUEIRA R DR A ARAÚJO (ESCOLA),38.639560,-9.181550,0,0,1,0,,Vale Figueira Rua Dr Á Araújo ( Escola ),0,,,020145,,1,,,,Vale Figueira,,,1503,Almada,15,Setúbal,PT170,AML,,,,,,,,,,,,,,,,,,,0,,,,,,,,,,,,,,,,,0,,0,0,0,0,0,0,0,0,0,0,0,0,0,0,0,0,0
020146,VALE FIGUEIRA R DR A ARAÚJO (ESCOLA),38.639440,-9.181630,0,0,1,0,,Vale Figueira Rua Dr Á Araújo ( Escola ),0,,,020146,,1,,,,Vale Figueira,,,1503,Almada,15,Setúbal,PT170,AML,,,,,,,,,,,,,,,,,,,0,,,,,,,,,,,,,,,,,0,,0,0,0,0,0,0,0,0,0,0,0,0,0,0,0,0,0
020155,VL FETAL ESTR BELA VISTA (X) R CRIS LOPES,38.629000,-9.187880,0,0,1,0,,Vale Fetal ( Cruzamento Entre ( Estrada Bela Vista ) E ( Rua Cris Lopes ) ),0,,,020155,,1,,,,Vale Fetal,,,1503,Almada,15,Setúbal,PT170,AML,,,,,,,,,,,,,,,,,,,0,,,,,,,,,,,,,,,,,0,,0,0,0,0,0,0,0,0,0,0,0,0,0,0,0,0,0
020156,VL FETAL ESTR BELA VISTA (X) R CRIS LOPES,38.628870,-9.187890,0,0,1,0,,Vale Fetal ( Cruzamento Entre ( Estrada Bela Vista ) E ( Rua Cris Lopes ) ),0,,,020156,,1,,,,Vale Fetal,,,1503,Almada,15,Setúbal,PT170,AML,,,,,,,,,,,,,,,,,,,0,,,,,,,,,,,,,,,,,0,,0,0,0,0,0,0,0,0,0,0,0,0,0,0,0,0,0
020159,CH CAP ESTR B VISTA 206 (X) QTA NOVA,38.631200,-9.193160,0,0,1,0,,Charnéca De Caparíca ( Cruzamento Entre ( Estrada B Vista 206 ) E ( Quinta Nova ) ),0,,,020159,,1,,,,Alenquer,,,1503,Almada,15,Setúbal,PT170,AML,,,,,,,,,,,,,,,,,,,0,,,,,,,,,,,,,,,,,0,,0,0,0,0,0,0,0,0,0,0,0,0,0,0,0,0,0
020160,CH CAP ESTR B VISTA 206 (X) QTA NOVA,38.631360,-9.193010,0,0,1,0,,Charnéca De Caparíca ( Cruzamento Entre ( Estrada B Vista 206 ) E ( Quinta Nova ) ),0,,,020160,,1,,,,Charneca da Caparica,,,1503,Almada,15,Setúbal,PT170,AML,,,,,,,,,,,,,,,,,,,0,,,,,,,,,,,,,,,,,0,,0,0,0,1,0,0,0,0,0,0,0,0,0,0,0,0,0
020161,CH CAPARICA (R RAMADA CURTO 13),38.630320,-9.196920,0,0,1,0,,Charnéca De Caparíca ( Rua Ramada Curto 13 ),0,,,020161,,1,,,,Charneca da Caparica,,,1503,Almada,15,Setúbal,PT170,AML,,,,,,,,,,,,,,,,,,,0,,,,,,,,,,,,,,,,,0,,0,0,0,0,0,0,0,0,0,0,0,0,0,0,0,0,0
020167,CH CAPARICA (R PRESIDENTE ARRIAGA 72),38.612000,-9.195040,0,0,1,0,,Charnéca De Caparíca ( Rua Presidente Arriaga 72 ),0,,,020167,,1,,,,Charneca da Caparica,,,1503,Almada,15,Setúbal,PT170,AML,,,,,,,,,,,,,,,,,,,0,,,,,,,,,,,,,,,,,0,,0,0,0,0,0,0,0,0,0,0,0,0,0,0,0,0,0
020168,CH CAPARICA (R PRESIDENTE ARRIAGA 72),38.612000,-9.194930,0,0,1,0,,Charnéca De Caparíca ( Rua Presidente Arriaga 72 ),0,,,020168,,1,,,,Charneca da Caparica,,,1503,Almada,15,Setúbal,PT170,AML,,,,,,,,,,,,,,,,,,,0,,,,,,,,,,,,,,,,,0,,0,0,0,0,0,0,0,0,0,0,0,0,0,0,0,0,0
020169,RUA DAS SARDINHEIRAS N15,38.609090,-9.195110,0,0,1,0,,Rua Das Sardinheiras ( Número 15 ),0,,,020169,,1,,,,Almada,,,1503,Almada,15,Setúbal,PT170,AML,,,,,,,,,,,,,,,,,,,0,,,,,,,,,,,,,,,,,0,,0,0,0,0,0,0,0,0,0,0,0,0,0,0,0,0,0
020170,RUA DAS SARDINHEIRAS N15,38.609100,-9.195200,0,0,1,0,,Rua Das Sardinheiras ( Número 15 ),0,,,020170,,1,,,,Almada,,,1503,Almada,15,Setúbal,PT170,AML,,,,,,,,,,,,,,,,,,,0,,,,,,,,,,,,,,,,,0,,0,0,0,0,0,0,0,0,0,0,0,0,0,0,0,0,0
020171,RUA PERO VAZ DE CAMINHA N17,38.606000,-9.194490,0,0,1,0,,Rua Pero Vaz De Caminha ( Número 17 ),0,,,020171,,1,,,,Almada,,,1503,Almada,15,Setúbal,PT170,AML,,,,,,,,,,,,,,,,,,,0,,,,,,,,,,,,,,,,,0,,0,0,0,0,0,0,0,0,0,0,0,0,0,0,0,0,0
020172,RUA PERO VAZ DE CAMINHA N17,38.605950,-9.194640,0,0,1,0,,Rua Pero Vaz De Caminha ( Número 17 ),0,,,020172,,1,,,,Almada,,,1503,Almada,15,Setúbal,PT170,AML,,,,,,,,,,,,,,,,,,,0,,,,,,,,,,,,,,,,,0,,0,0,0,0,0,0,0,0,0,0,0,0,0,0,0,0,0
020173,RUA DE VERA CRUZ N49,38.604760,-9.190970,0,0,1,0,,Rua De Vera Cruz ( Número 49 ),0,,,020173,,1,,,,Almada,,,1503,Almada,15,Setúbal,PT170,AML,,,,,,,,,,,,,,,,,,,0,,,,,,,,,,,,,,,,,0,,0,0,0,0,0,0,0,0,0,0,0,0,0,0,0,0,0
020174,RUA DE VERA CRUZ N49,38.604650,-9.190940,0,0,1,0,,Rua De Vera Cruz ( Número 49 ),0,,,020174,,1,,,,Almada,,,1503,Almada,15,Setúbal,PT170,AML,,,,,,,,,,,,,,,,,,,0,,,,,,,,,,,,,,,,,0,,0,0,0,0,0,0,0,0,0,0,0,0,0,0,0,0,0
020175,RUA QTA DOS EUCALIPTOS N31,38.604700,-9.186960,0,0,1,0,,Rua Quinta Dos Eucaliptos ( Número 31 ),0,,,020175,,1,,,,Almada,,,1503,Almada,15,Setúbal,PT170,AML,,,,,,,,,,,,,,,,,,,0,,,,,,,,,,,,,,,,,0,,0,0,0,1,0,0,0,0,0,0,0,0,0,0,0,0,0
020176,RUA QTA DOS EUCALIPTOS N31,38.604600,-9.187000,0,0,1,0,,Rua Quinta Dos Eucaliptos ( Número 31 ),0,,,020176,,1,,,,Almada,,,1503,Almada,15,Setúbal,PT170,AML,,,,,,,,,,,,,,,,,,,0,,,,,,,,,,,,,,,,,0,,0,0,0,1,0,0,0,0,0,0,0,0,0,0,0,0,0
020177,CH CAPARICA (R PEDRO COSTA 1284) VL BEM,38.603620,-9.186370,0,0,1,0,,Charnéca De Caparíca ( Rua Pedro Costa 1284 ) Vale Bem,0,,,020177,,1,,,,Charneca da Caparica,,,1503,Almada,15,Setúbal,PT170,AML,,,,,,,,,,,,,,,,,,,0,,,,,,,,,,,,,,,,,0,,0,0,0,1,0,0,0,0,0,0,0,0,0,0,0,0,0
020178,CH CAPARICA (R PEDRO COSTA 1284) VL BEM,38.603480,-9.186240,0,0,1,0,,Charnéca De Caparíca ( Rua Pedro Costa 1284 ) Vale Bem,0,,,020178,,1,,,,Charneca da Caparica,,,1503,Almada,15,Setúbal,PT170,AML,,,,,,,,,,,,,,,,,,,0,,,,,,,,,,,,,,,,,0,,0,0,0,1,0,0,0,0,0,0,0,0,0,0,0,0,0
020179,CH CAPARICA (R PEDRO COSTA) TREMOCEIRA,38.601290,-9.186840,0,0,1,0,,Charnéca De Caparíca ( Rua Pedro Costa ) Tremoceira,0,,,020179,,1,,,,Charneca da Caparica,,,1503,Almada,15,Setúbal,PT170,AML,,,,,,,,,,,,,,,,,,,0,,,,,,,,,,,,,,,,,0,,0,0,0,0,0,0,0,0,0,0,0,0,0,0,0,0,0
020180,CH CAPARICA (R PEDRO COSTA) TREMOCEIRA,38.601300,-9.187020,0,0,1,0,,Charnéca De Caparíca ( Rua Pedro Costa ) Tremoceira,0,,,020180,,1,,,,Charneca da Caparica,,,1503,Almada,15,Setúbal,PT170,AML,,,,,,,,,,,,,,,,,,,0,,,,,,,,,,,,,,,,,0,,0,0,0,0,0,0,0,0,0,0,0,0,0,0,0,0,0
020181,MARISOL (R ANTÓNIO SOARES N10),38.599700,-9.184510,0,0,1,0,,Marisol ( Rua António Soares ( Número 10 ) ),0,,,020181,,1,,,,Marisol,,,1503,Almada,15,Setúbal,PT170,AML,,,,,,,,,,,,,,,,,,,0,,,,,,,,,,,,,,,,,0,,0,0,0,1,0,0,0,0,0,0,0,0,0,0,0,0,0
020182,MARISOL (R ANTÓNIO SOARES N10),38.599680,-9.184610,0,0,1,0,,Marisol ( Rua António Soares ( Número 10 ) ),0,,,020182,,1,,,,Marisol,,,1503,Almada,15,Setúbal,PT170,AML,,,,,,,,,,,,,,,,,,,0,,,,,,,,,,,,,,,,,0,,0,0,0,1,0,0,0,0,0,0,0,0,0,0,0,0,0
020183,CH CAPARICA ROT ALAM AMÁLIA RODRIGUES3,38.623260,-9.199370,0,0,1,0,,Charnéca De Caparíca Rotunda Alameda Amália Rodrigues 3,0,,,020183,,1,,,,Almada,,,1503,Almada,15,Setúbal,PT170,AML,,,,,,,,,,,,,,,,,,,0,,,,,,,,,,,,,,,,,0,,0,0,0,0,0,0,0,0,0,0,0,0,0,0,0,0,0
020184,CH CAPARICA ROT ALAM AMÁLIA RODRIGUES3,38.623400,-9.199270,0,0,1,0,,Charnéca De Caparíca Rotunda Alameda Amália Rodrigues 3,0,,,020184,,1,,,,Almada,,,1503,Almada,15,Setúbal,PT170,AML,,,,,,,,,,,,,,,,,,,0,,,,,,,,,,,,,,,,,0,,0,0,0,0,0,0,0,0,0,0,0,0,0,0,0,0,0
020185,CH CAPARICA (R ELIAS GARCIA) MONSERRATE,38.629700,-9.198560,0,0,1,0,,Charnéca De Caparíca ( Rua Elias Garcia ) Monserrate,0,,,020185,,1,,,,Charneca da Caparica,,,1503,Almada,15,Setúbal,PT170,AML,,,,,,,,,,,,,,,,,,,0,,,,,,,,,,,,,,,,,0,,0,0,0,0,0,0,0,0,0,0,0,0,0,0,0,0,0
020186,CH CAPARICA (R ELIAS GARCIA) MONSERRATE,38.629580,-9.198690,0,0,1,0,,Charnéca De Caparíca ( Rua Elias Garcia ) Monserrate,0,,,020186,,1,,,,Charneca da Caparica,,,1503,Almada,15,Setúbal,PT170,AML,,,,,,,,,,,,,,,,,,,0,,,,,,,,,,,,,,,,,0,,0,0,0,0,0,0,0,0,0,0,0,0,0,0,0,0,0
020187,CH CAPARICA (ESTR BELA VISTA 191),38.630570,-9.195570,0,0,1,0,,Charnéca De Caparíca ( Estrada Bela Vista 191 ),0,,,020187,,1,,,,Charneca da Caparica,,,1503,Almada,15,Setúbal,PT170,AML,,,,,,,,,,,,,,,,,,,0,,,,,,,,,,,,,,,,,0,,0,0,0,1,0,0,0,0,0,0,0,0,0,0,0,0,0
020189,CH CAPA ESTR BELA VISTA 179 (X) QTA NOVA,38.631150,-9.193450,0,0,1,0,,Charnéca De Caparíca ( Cruzamento Entre ( Estrada Bela Vista 179 ) E ( Quinta Nova ) ),0,,,020189,,1,,,,Charneca da Caparica,,,1503,Almada,15,Setúbal,PT170,AML,,,,,,,,,,,,,,,,,,,0,,,,,,,,,,,,,,,,,0,,0,0,0,1,0,0,0,0,0,0,0,0,0,0,0,0,0
020199,ALMADA (PÇA GIL VICENTE) ESCOLA,38.682660,-9.152550,0,0,1,0,,Almada ( Práça Gil Vicente ) Escola,0,,,020199,,1,,,,Almada,,,1503,Almada,15,Setúbal,PT170,AML,,,,,,,,,,,,,,,,,,,0,,,,,,,,,,,,,,,,,0,,0,0,0,1,0,0,0,0,0,0,0,0,0,0,0,0,0
020205,ALMADA (R CAPITÃO LEITÃO N79),38.680864,-9.160525,0,0,1,0,,Almada ( Rua Capitão Leitão ( Número 79 ) ),0,,,020205,,1,,,,Almada,,,1503,Almada,15,Setúbal,PT170,AML,,,,,,,,,,,,,,,,,,,0,,,,,,,,,,,,,,,,,0,,0,0,0,1,0,0,0,0,0,0,0,0,0,0,0,0,0
020207,ALMADA (R CAPITÃO LEITÃO N107),38.679476,-9.162041,0,0,1,0,,Almada ( Rua Capitão Leitão ( Número 107 ) ),0,,,020207,,1,,,,Almada,,,1503,Almada,15,Setúbal,PT170,AML,,,,,,,,,,,,,,,,,,,0,,,,,,,,,,,,,,,,,0,,0,0,0,0,0,0,0,0,0,0,0,0,0,0,0,0,0
020209,ALMADA (R CAPITÃO LEITÃO N43A),38.681840,-9.160407,0,0,1,0,,Almada ( Rua Capitão Leitão ( Número 43 Á ) ),0,,,020209,,1,,,,Almada,,,1503,Almada,15,Setúbal,PT170,AML,,,,,,,,,,,,,,,,,,,0,,,,,,,,,,,,,,,,,0,,0,0,0,1,0,0,0,0,0,0,0,0,0,0,0,0,0
020211,R DOM JOSÉ DE MASCARENHAS N65,38.683862,-9.154900,0,0,1,0,,Rua Dom José De Mascarenhas ( Número 65 ),0,,,020211,,1,,,,Almada,,,1503,Almada,15,Setúbal,PT170,AML,,,,,,,,,,,,,,,,,,,0,,,,,,,,,,,,,,,,,0,,0,0,0,1,0,0,0,0,0,0,0,0,0,0,0,0,0
020217,R ELIAS GARCIA 36A,38.685397,-9.150700,0,0,1,0,,Rua Elias Garcia 36 Á,0,,,020217,,1,,,,Almada,,,1503,Almada,15,Setúbal,PT170,AML,,,,,,,,,,,,,,,,,,,0,,,,,,,,,,,,,,,,,0,,0,0,0,0,0,0,0,0,0,0,0,0,0,0,0,0,0
020219,CACILHAS (LARGO ALF DINIS ALEX) TER P3,38.687363,-9.147796,0,0,1,0,,Cacilhas ( Largo Alfredo Dinis Alex) Terminál ( P 3 ),0,,,020219,,1,,,,Cacilhas,,,1503,Almada,15,Setúbal,PT170,AML,,,,,,,,,,,,,,,,,,,0,,,,,,,,,,,,,,,,,0,,0,0,0,0,0,0,0,0,0,0,0,0,0,0,0,0,0
020225,AV DOM AFONSO HENRIQUES N28,38.586300,-9.173860,0,0,1,0,,Avenida Dom Afonso Henriques ( Número 28 ),0,,,020225,,1,,,,Almada,,,1503,Almada,15,Setúbal,PT170,AML,,,,,,,,,,,,,,,,,,,0,,,,,,,,,,,,,,,,,0,,0,0,0,0,0,0,0,0,0,0,0,0,0,0,0,0,0
020226,AV DOM AFONSO HENRIQUES N28,38.586300,-9.173830,0,0,1,0,,Avenida Dom Afonso Henriques ( Número 28 ),0,,,020226,,1,,,,Almada,,,1503,Almada,15,Setúbal,PT170,AML,,,,,,,,,,,,,,,,,,,0,,,,,,,,,,,,,,,,,0,,0,0,0,0,0,0,0,0,0,0,0,0,0,0,0,0,0
020227,AV DOM AFONSO HENRIQUES N24A,38.589200,-9.176970,0,0,1,0,,Avenida Dom Afonso Henriques ( Número 24 Á ),0,,,020227,,1,,,,Almada,,,1503,Almada,15,Setúbal,PT170,AML,,,,,,,,,,,,,,,,,,,0,,,,,,,,,,,,,,,,,0,,0,0,0,0,0,0,0,0,0,0,0,0,0,0,0,0,0
020228,AV DOM AFONSO HENRIQUES N24A,38.589200,-9.177000,0,0,1,0,,Avenida Dom Afonso Henriques ( Número 24 Á ),0,,,020228,,1,,,,Almada,,,1503,Almada,15,Setúbal,PT170,AML,,,,,,,,,,,,,,,,,,,0,,,,,,,,,,,,,,,,,0,,0,0,0,0,0,0,0,0,0,0,0,0,0,0,0,0,0
020229,MARISOL R SOARES REIS (X) R D JOÃO II,38.592670,-9.181810,0,0,1,0,,Marisol ( Cruzamento Entre ( Rua Soares Reis ) E ( Rua Dom João Segundo ) ),0,,,020229,,1,,,,Marisol,,,1503,Almada,15,Setúbal,PT170,AML,,,,,,,,,,,,,,,,,,,0,,,,,,,,,,,,,,,,,0,,0,0,0,0,0,0,0,0,0,0,0,0,0,0,0,0,0
020230,MARISOL R SOARES REIS (X) R D JOÃO II,38.592770,-9.181800,0,0,1,0,,Marisol ( Cruzamento Entre ( Rua Soares Reis ) E ( Rua Dom João Segundo ) ),0,,,020230,,1,,,,Marisol,,,1503,Almada,15,Setúbal,PT170,AML,,,,,,,,,,,,,,,,,,,0,,,,,,,,,,,,,,,,,0,,0,0,0,0,0,0,0,0,0,0,0,0,0,0,0,0,0
020231,MARISOL (R ANTÓNIO SOARES N74),38.594800,-9.183900,0,0,1,0,,Marisol ( Rua António Soares ( Número 74 ) ),0,,,020231,,1,,,,Marisol,,,1503,Almada,15,Setúbal,PT170,AML,,,,,,,,,,,,,,,,,,,0,,,,,,,,,,,,,,,,,0,,0,0,0,0,0,0,0,0,0,0,0,0,0,0,0,0,0
020232,MARISOL (R ANTÓNIO SOARES N74),38.594810,-9.183770,0,0,1,0,,Marisol ( Rua António Soares ( Número 74 ) ),0,,,020232,,1,,,,Marisol,,,1503,Almada,15,Setúbal,PT170,AML,,,,,,,,,,,,,,,,,,,0,,,,,,,,,,,,,,,,,0,,0,0,0,0,0,0,0,0,0,0,0,0,0,0,0,0,0
020241,R SOEIRO PEREIRA GOMES 68A,38.594800,-9.175940,0,0,1,0,,Rua Soeiro Pereira Gomes 68 Á,0,,,020241,,1,,,,Almada,,,1503,Almada,15,Setúbal,PT170,AML,,,,,,,,,,,,,,,,,,,0,,,,,,,,,,,,,,,,,0,,0,0,0,0,0,0,0,0,0,0,0,0,0,0,0,0,0
020242,R SOEIRO PEREIRA GOMES 68A,38.594800,-9.175940,0,0,1,0,,Rua Soeiro Pereira Gomes 68 Á,0,,,020242,,1,,,,Almada,,,1503,Almada,15,Setúbal,PT170,AML,,,,,,,,,,,,,,,,,,,0,,,,,,,,,,,,,,,,,0,,0,0,0,0,0,0,0,0,0,0,0,0,0,0,0,0,0
020243,AV ILHA DA MADEIRA 50A,38.591800,-9.176570,0,0,1,0,,Avenida Ilha Da Madeira 50 Á,0,,,020243,,1,,,,Almada,,,1503,Almada,15,Setúbal,PT170,AML,,,,,,,,,,,,,,,,,,,0,,,,,,,,,,,,,,,,,0,,0,0,0,0,0,0,0,0,0,0,0,0,0,0,0,0,0
020244,AV ILHA DA MADEIRA 50A,38.591800,-9.176540,0,0,1,0,,Avenida Ilha Da Madeira 50 Á,0,,,020244,,1,,,,Almada,,,1503,Almada,15,Setúbal,PT170,AML,,,,,,,,,,,,,,,,,,,0,,,,,,,,,,,,,,,,,0,,0,0,0,0,0,0,0,0,0,0,0,0,0,0,0,0,0
020245,AV MAR (X) R JOSÉ MALHOA (ROT),38.583988,-9.170994,0,0,1,0,,Cruzamento Entre ( Avenida Mar ) E ( Rua José Malhoa ( Rotunda ) ),0,,,020245,,1,,,,Aroeira,,,1503,Almada,15,Setúbal,PT170,AML,,,,,,,,,,,,,,,,,,,0,,,,,,,,,,,,,,,,,0,,0,0,0,0,0,0,0,0,0,0,0,0,0,0,0,0,0
020246,AV MAR (X) R JOSÉ MALHOA (ROT),38.584340,-9.170390,0,0,1,0,,Cruzamento Entre ( Avenida Mar ) E ( Rua José Malhoa ( Rotunda ) ),0,,,020246,,1,,,,Aroeira,,,1503,Almada,15,Setúbal,PT170,AML,,,,,,,,,,,,,,,,,,,0,,,,,,,,,,,,,,,,,0,,0,0,0,0,0,0,0,0,0,0,0,0,0,0,0,0,0
020251,CH CAPARICA (R PEDRO COSTA) TREMOCEIRA,38.600600,-9.186630,0,0,1,0,,Charnéca De Caparíca ( Rua Pedro Costa ) Tremoceira,0,,,020251,,1,,,,Charneca da Caparica,,,1503,Almada,15,Setúbal,PT170,AML,,,,,,,,,,,,,,,,,,,0,,,,,,,,,,,,,,,,,0,,0,0,0,1,0,0,0,0,0,0,0,0,0,0,0,0,0
020255,Bº F FOMENTO (R 3 VALES N65),38.667646,-9.188414,0,0,1,0,,Bairro Fundo Fomento ( Rua 3 Vales ( Número 65 ) ),0,,,020255,,1,,,,Bairro Fundo Fomento,,,1503,Almada,15,Setúbal,PT170,AML,,,,,,,,,,,,,,,,,,,0,,,,,,,,,,,,,,,,,0,,0,0,0,0,0,0,0,0,0,0,0,0,0,0,0,0,0
020256,Bº F FOMENTO (R 3 VALES N65),38.667870,-9.188260,0,0,1,0,,Bairro Fundo Fomento ( Rua 3 Vales ( Número 65 ) ),0,,,020256,,1,,,,Bairro Fundo Fomento,,,1503,Almada,15,Setúbal,PT170,AML,,,,,,,,,,,,,,,,,,,0,,,,,,,,,,,,,,,,,0,,0,0,0,0,0,0,0,0,0,0,0,0,0,0,0,0,0
020261,Bº F FOMENTO (R MOINHO N11),38.671200,-9.189970,0,0,1,0,,Bairro Fundo Fomento ( Rua Moinho ( Número 11 ) ),0,,,020261,,1,,,,Bairro Fundo Fomento,,,1503,Almada,15,Setúbal,PT170,AML,,,,,,,,,,,,,,,,,,,0,,,,,,,,,,,,,,,,,0,,0,0,0,1,0,0,0,0,0,0,0,0,0,0,0,0,0
020262,Bº F FOMENTO (R MOINHO N11),38.671210,-9.190080,0,0,1,0,,Bairro Fundo Fomento ( Rua Moinho ( Número 11 ) ),0,,,020262,,1,,,,Bairro Fundo Fomento,,,1503,Almada,15,Setúbal,PT170,AML,,,,,,,,,,,,,,,,,,,0,,,,,,,,,,,,,,,,,0,,0,0,0,1,0,0,0,0,0,0,0,0,0,0,0,0,0
020265,Bº F FOMENTO (R 3 VALES N45),38.668750,-9.185030,0,0,1,0,,Bairro Fundo Fomento ( Rua 3 Vales ( Número 45 ) ),0,,,020265,,1,,,,Bairro Fundo Fomento,,,1503,Almada,15,Setúbal,PT170,AML,,,,,,,,,,,,,,,,,,,0,,,,,,,,,,,,,,,,,0,,0,0,0,0,0,0,0,0,0,0,0,0,0,0,0,0,0
020266,Bº F FOMENTO (R 3 VALES N45),38.668860,-9.185090,0,0,1,0,,Bairro Fundo Fomento ( Rua 3 Vales ( Número 45 ) ),0,,,020266,,1,,,,Bairro Fundo Fomento,,,1503,Almada,15,Setúbal,PT170,AML,,,,,,,,,,,,,,,,,,,0,,,,,,,,,,,,,,,,,0,,0,0,0,0,0,0,0,0,0,0,0,0,0,0,0,0,0
020267,Bº F FOMENTO (R 3 VALES N35),38.669130,-9.183500,0,0,1,0,,Bairro Fundo Fomento ( Rua 3 Vales ( Número 35 ) ),0,,,020267,,1,,,,Bairro Fundo Fomento,,,1503,Almada,15,Setúbal,PT170,AML,,,,,,,,,,,,,,,,,,,0,,,,,,,,,,,,,,,,,0,,0,0,0,0,0,0,0,0,0,0,0,0,0,0,0,0,0
020268,Bº F FOMENTO (R 3 VALES N35),38.669030,-9.183440,0,0,1,0,,Bairro Fundo Fomento ( Rua 3 Vales ( Número 35 ) ),0,,,020268,,1,,,,Bairro Fundo Fomento,,,1503,Almada,15,Setúbal,PT170,AML,,,,,,,,,,,,,,,,,,,0,,,,,,,,,,,,,,,,,0,,0,0,0,0,0,0,0,0,0,0,0,0,0,0,0,0,0
020271,B COR ROSA EST CASQUILHO 3 (MATADOURO),38.670700,-9.178280,0,0,1,0,,Bairro Cor Rosa ( Estação ) Casquilho 3 ( Matadouro ),0,,,020271,,1,,,,Almada,,,1503,Almada,15,Setúbal,PT170,AML,,,,,,,,,,,,,,,,,,,0,,,,,,,,,,,,,,,,,0,,0,0,0,0,0,0,0,0,0,0,0,0,0,0,0,0,0
020272,B COR ROSA EST CASQUILHO 3 (MATADOURO),38.670681,-9.178491,0,0,1,0,,Bairro Cor Rosa ( Estação ) Casquilho 3 ( Matadouro ),0,,,020272,,1,,,,Almada,,,1503,Almada,15,Setúbal,PT170,AML,,,,,,,,,,,,,,,,,,,0,,,,,,,,,,,,,,,,,0,,0,0,0,0,0,0,0,0,0,0,0,0,0,0,0,0,0
020285,CV PIEDADE (R VERA CRUZ) (X) PR CEILÃO,38.669380,-9.162970,0,0,1,0,,Cruzamento Entre ( Cóva Piedade ( Rua Vera Cruz ) ) E ( Praça Ceilão ),0,,,020285,,1,,,,Cova da Piedade,,,1503,Almada,15,Setúbal,PT170,AML,,,,,,,,,,,,,,,,,,,0,,,,,,,,,,,,,,,,,0,,0,0,0,0,0,0,0,0,0,0,0,0,0,0,0,0,0
020286,CV PIEDADE (R VERA CRUZ) (X) PR CEILÃO,38.669420,-9.162890,0,0,1,0,,Cruzamento Entre ( Cóva Piedade ( Rua Vera Cruz ) ) E ( Praça Ceilão ),0,,,020286,,1,,,,Cova da Piedade,,,1503,Almada,15,Setúbal,PT170,AML,,,,,,,,,,,,,,,,,,,0,,,,,,,,,,,,,,,,,0,,0,0,0,0,0,0,0,0,0,0,0,0,0,0,0,0,0
020289,PRAGAL (R DIREITA PRAGAL LTE 10),38.673040,-9.172450,0,0,1,0,,Pragal ( Rua Direita Pragal Lóte 10 ),0,,,020289,,1,,,,Pragal,,,1503,Almada,15,Setúbal,PT170,AML,,,,,,,,,,,,,,,,,,,0,,,,,,,,,,,,,,,,,0,,0,0,0,1,0,0,0,0,0,0,0,0,0,0,0,0,0
020290,PRAGAL (R DIREITA PRAGAL LTE 10),38.673170,-9.172600,0,0,1,0,,Pragal ( Rua Direita Pragal Lóte 10 ),0,,,020290,,1,,,,Pragal,,,1503,Almada,15,Setúbal,PT170,AML,,,,,,,,,,,,,,,,,,,0,,,,,,,,,,,,,,,,,0,,0,0,0,1,0,0,0,0,0,0,0,0,0,0,0,0,0
020299,MONTE CAPARICA (R CON M FERNANDES 62),38.674180,-9.197400,0,0,1,0,,Monte De Caparíca ( Rua Conselheiro M Fernandes 62 ),0,,,020299,,1,,,,Monte da Caparica,,,1503,Almada,15,Setúbal,PT170,AML,,,,,,,,,,,,,,,,,,,0,,,,,,,,,,,,,,,,,0,,0,0,0,0,0,0,0,0,0,0,0,0,0,0,0,0,0
020300,MONTE CAPARICA (R CON M FERNANDES 62),38.674200,-9.197280,0,0,1,0,,Monte De Caparíca ( Rua Conselheiro M Fernandes 62 ),0,,,020300,,1,,,,Monte da Caparica,,,1503,Almada,15,Setúbal,PT170,AML,,,,,,,,,,,,,,,,,,,0,,,,,,,,,,,,,,,,,0,,0,0,0,0,0,0,0,0,0,0,0,0,0,0,0,0,0
020301,MTE CAP R CON MAN LUIS FERN (CLUBE REC),38.669800,-9.195270,0,0,1,0,,Monte De Caparíca Rua Conselheiro Manuel Luis Fernando ( Clube Recreativo ),0,,,020301,,1,,,,Monte da Caparica,,,1503,Almada,15,Setúbal,PT170,AML,,,,,,,,,,,,,,,,,,,0,,,,,,,,,,,,,,,,,0,,0,0,0,0,0,0,0,0,0,0,0,0,0,0,0,0,0
020302,MTE CAP R CON MAN LUIS FERN (CLUBE REC),38.669790,-9.195380,0,0,1,0,,Monte De Caparíca Rua Conselheiro Manuel Luis Fernando ( Clube Recreativo ),0,,,020302,,1,,,,Monte da Caparica,,,1503,Almada,15,Setúbal,PT170,AML,,,,,,,,,,,,,,,,,,,0,,,,,,,,,,,,,,,,,0,,0,0,0,0,0,0,0,0,0,0,0,0,0,0,0,0,0
020303,MONTE CAPARICA R CON M FERNANDES 62,38.667600,-9.194680,0,0,1,0,,Monte De Caparíca Rua Conselheiro M Fernandes 62,0,,,020303,,1,,,,Almada,,,1503,Almada,15,Setúbal,PT170,AML,,,,,,,,,,,,,,,,,,,0,,,,,,,,,,,,,,,,,0,,0,0,0,0,0,0,0,0,0,0,0,0,0,0,0,0,0
020304,MONTE CAPARICA R CON M FERNANDES 62,38.667590,-9.194780,0,0,1,0,,Monte De Caparíca Rua Conselheiro M Fernandes 62,0,,,020304,,1,,,,Almada,,,1503,Almada,15,Setúbal,PT170,AML,,,,,,,,,,,,,,,,,,,0,,,,,,,,,,,,,,,,,0,,0,0,0,0,0,0,0,0,0,0,0,0,0,0,0,0,0
020305,MTE CAP R CON MAN LUIS FERN (X) R FACHO,38.666200,-9.194640,0,0,1,0,,Cruzamento Entre ( Monte De Caparíca Rua Conselheiro Manuel Luis Fernando ) E ( Rua Facho ),0,,,020305,,1,,,,Monte da Caparica,,,1503,Almada,15,Setúbal,PT170,AML,,,,,,,,,,,,,,,,,,,0,,,,,,,,,,,,,,,,,0,,0,0,0,0,0,0,0,0,0,0,0,0,0,0,0,0,0
020306,MTE CAP R CON MAN LUIS FERN (X) R FACHO,38.666200,-9.194600,0,0,1,0,,Cruzamento Entre ( Monte De Caparíca Rua Conselheiro Manuel Luis Fernando ) E ( Rua Facho ),0,,,020306,,1,,,,Monte da Caparica,,,1503,Almada,15,Setúbal,PT170,AML,,,,,,,,,,,,,,,,,,,0,,,,,,,,,,,,,,,,,0,,0,0,0,0,0,0,0,0,0,0,0,0,0,0,0,0,0
020307,MTE CAPARICAAV TORRADO SILVA (X) FOMEGA,38.665500,-9.195130,0,0,1,0,,Monte De Caparíca ( Cruzamento Entre ( Avenida Torrado Silva ) E ( Fómega ) ),0,,,020307,,1,,,,Alenquer,,,1503,Almada,15,Setúbal,PT170,AML,,,,,,,,,,,,,,,,,,,0,,,,,,,,,,,,,,,,,0,,0,0,0,0,0,0,0,0,0,0,0,0,0,0,0,0,0
020308,MTE CAPARICAAV TORRADO SILVA (X) FOMEGA,38.665640,-9.195120,0,0,1,0,,Monte De Caparíca ( Cruzamento Entre ( Avenida Torrado Silva ) E ( Fómega ) ),0,,,020308,,1,,,,Monte da Caparica,,,1503,Almada,15,Setúbal,PT170,AML,,,,,,,,,,,,,,,,,,,0,,,,,,,,,,,,,,,,,0,,0,0,0,0,0,0,0,0,0,0,0,0,0,0,0,0,0
020309,MTE CAP R TRAB RURAIS (ROTUNDA),38.664400,-9.197050,0,0,1,0,,Monte De Caparíca Rua Trabalhadores Rurais ( Rotunda ),0,,,020309,,1,,,,Monte da Caparica,,,1503,Almada,15,Setúbal,PT170,AML,,,,,,,,,,,,,,,,,,,0,,,,,,,,,,,,,,,,,0,,0,0,0,1,0,0,0,0,0,0,0,0,0,0,0,0,0
020310,MTE CAP R TRAB RURAIS (ROTUNDA),38.664510,-9.196980,0,0,1,0,,Monte De Caparíca Rua Trabalhadores Rurais ( Rotunda ),0,,,020310,,1,,,,Monte da Caparica,,,1503,Almada,15,Setúbal,PT170,AML,,,,,,,,,,,,,,,,,,,0,,,,,,,,,,,,,,,,,0,,0,0,0,1,0,0,0,0,0,0,0,0,0,0,0,0,0
020311,MTE CAPARICA (LARGO CANDIDO REIS 76),38.663800,-9.198310,0,0,1,0,,Monte De Caparíca ( Largo Candido Reis 76 ),0,,,020311,,1,,,,Monte da Caparica,,,1503,Almada,15,Setúbal,PT170,AML,,,,,,,,,,,,,,,,,,,0,,,,,,,,,,,,,,,,,0,,0,0,0,1,0,0,0,0,0,0,0,0,0,0,0,0,0
020313,MTE CAP AV T LOROSAE (X) PORTO BRANDÃO,38.663919,-9.203106,0,0,1,0,,Cruzamento Entre ( Monte De Caparíca Avenida Timor Loro Sae ) E ( Porto Brandão ),0,,,020313,,1,,,,Monte da Caparica,,,1503,Almada,15,Setúbal,PT170,AML,,,,,,,,,,,,,,,,,,,0,,,,,,,,,,,,,,,,,0,,0,0,0,1,0,0,0,0,0,0,0,0,0,0,0,0,0
020314,MTE CAP AV T LOROSAE (X) PORTO BRANDÃO,38.664180,-9.203210,0,0,1,0,,Cruzamento Entre ( Monte De Caparíca Avenida Timor Loro Sae ) E ( Porto Brandão ),0,,,020314,,1,,,,Monte da Caparica,,,1503,Almada,15,Setúbal,PT170,AML,,,,,,,,,,,,,,,,,,,0,,,,,,,,,,,,,,,,,0,,0,0,0,1,0,0,0,0,0,0,0,0,0,0,0,0,0
020315,TORRE CAPARICA (EN 10-1) (X) FACULDADE,38.662639,-9.203328,0,0,1,0,,Cruzamento Entre ( Torre Caparica ( Estrada Nacional 10 - 1 ) ) E ( Faculdade ),0,,,020315,,1,,,,Torre da Caparica,,,1503,Almada,15,Setúbal,PT170,AML,,,,,,,,,,,,,,,,,,,0,,,,,,,,,,,,,,,,,0,,0,0,0,1,0,0,0,0,0,0,0,0,0,0,0,0,0
020317,MONTE CAPARICA (FCT) ROTUNDA,38.660441,-9.202667,0,0,1,0,,Monte De Caparíca ( F. C. T. ) Rotunda,0,,,020317,,1,,,,Torre da Caparica,,,1503,Almada,15,Setúbal,PT170,AML,,,,,,,,,,,,,,,,,,,1,108,,,,,,,,,,,,,,,,0,,0,0,0,1,0,0,0,0,0,0,0,0,0,0,0,0,0
020319,CASAS VELHAS (DIA A DIA),38.656510,-9.201590,0,0,1,0,,Casas Velhas ( Dia Á Dia ),0,,,020319,,1,,,,Casas Velhas,,,1503,Almada,15,Setúbal,PT170,AML,,,,,,,,,,,,,,,,,,,0,,,,,,,,,,,,,,,,,0,,0,0,0,0,0,0,0,0,0,0,0,0,0,0,0,0,0
020323,LAZARIM R S MACÁRIO (X) R HUMB MADEIRA,38.642140,-9.200660,0,0,1,0,,Lazarim ( Cruzamento Entre ( Rua São Macário ) E ( Rua Humberto Madeira ) ),0,,,020323,,1,,,,Lazarim,,,1503,Almada,15,Setúbal,PT170,AML,,,,,,,,,,,,,,,,,,,0,,,,,,,,,,,,,,,,,0,,0,0,0,0,0,0,0,0,0,0,0,0,0,0,0,0,0
020325,LAZARIM (QTA REGATEIRA N15),38.638540,-9.202130,0,0,1,0,,Lazarim ( Quinta Regateira ( Número 15 ) ),0,,,020325,,1,,,,Lazarim,,,1503,Almada,15,Setúbal,PT170,AML,,,,,,,,,,,,,,,,,,,0,,,,,,,,,,,,,,,,,0,,0,0,0,0,0,0,0,0,0,0,0,0,0,0,0,0,0
020331,CH CAPAR R OLIVEIRA FEIJÃO (IGREJA),38.627810,-9.197200,0,0,1,0,,Charnéca De Caparíca Rua Oliveira Feijão ( Igreja ),0,,,020331,,1,,,,Charneca da Caparica,,,1503,Almada,15,Setúbal,PT170,AML,,,,,,,,,,,,,,,,,,,0,,,,,,,,,,,,,,,,,0,,0,0,0,0,0,0,0,0,0,0,0,0,0,0,0,0,0
020332,CH CAPAR R OLIVEIRA FEIJÃO (IGREJA),38.627820,-9.197360,0,0,1,0,,Charnéca De Caparíca Rua Oliveira Feijão ( Igreja ),0,,,020332,,1,,,,Charneca da Caparica,,,1503,Almada,15,Setúbal,PT170,AML,,,,,,,,,,,,,,,,,,,0,,,,,,,,,,,,,,,,,0,,0,0,0,0,0,0,0,0,0,0,0,0,0,0,0,0,0
020333,CH CAPARICA R DR OLIVEIRA FEIJÃO6(ROT),38.624690,-9.196150,0,0,1,0,,Charnéca De Caparíca Rua Doutora Oliveira Feijão 6 ( Rotunda ),0,,,020333,,1,,,,Charneca da Caparica,,,1503,Almada,15,Setúbal,PT170,AML,,,,,,,,,,,,,,,,,,,0,,,,,,,,,,,,,,,,,0,,0,0,0,0,0,0,0,0,0,0,0,0,0,0,0,0,0
020334,CH CAPARICA R DR OLIVEIRA FEIJÃO6(ROT),38.624660,-9.195970,0,0,1,0,,Charnéca De Caparíca Rua Doutora Oliveira Feijão 6 ( Rotunda ),0,,,020334,,1,,,,Charneca da Caparica,,,1503,Almada,15,Setúbal,PT170,AML,,,,,,,,,,,,,,,,,,,0,,,,,,,,,,,,,,,,,0,,0,0,0,0,0,0,0,0,0,0,0,0,0,0,0,0,0
020335,CH CAPARICA R DR OLIVEIRA FEIJÃO 1074,38.620340,-9.194040,0,0,1,0,,Charnéca De Caparíca Rua Doutora Oliveira Feijão 1074,0,,,020335,,1,,,,Almada,,,1503,Almada,15,Setúbal,PT170,AML,,,,,,,,,,,,,,,,,,,0,,,,,,,,,,,,,,,,,0,,0,0,0,0,0,0,0,0,0,0,0,0,0,0,0,0,0
020336,CH CAPARICA R DR OLIVEIRA FEIJÃO 1074,38.620400,-9.194240,0,0,1,0,,Charnéca De Caparíca Rua Doutora Oliveira Feijão 1074,0,,,020336,,1,,,,Almada,,,1503,Almada,15,Setúbal,PT170,AML,,,,,,,,,,,,,,,,,,,0,,,,,,,,,,,,,,,,,0,,0,0,0,0,0,0,0,0,0,0,0,0,0,0,0,0,0
020337,CH CAPARICA (R ANTÓNIO ANDRADE) CENTRO,38.617360,-9.192360,0,0,1,0,,Charnéca De Caparíca ( Rua António Andrade ) Centro,0,,,020337,,1,,,,Charneca da Caparica,,,1503,Almada,15,Setúbal,PT170,AML,,,,,,,,,,,,,,,,,,,1,130,,,,,,,,,,,,,,,,0,,0,0,0,0,0,0,0,0,0,0,0,0,0,0,0,0,0
020338,CH CAPARICA (R ANTÓNIO ANDRADE) CENTRO,38.617200,-9.192430,0,0,1,0,,Charnéca De Caparíca ( Rua António Andrade ) Centro,0,,,020338,,1,,,,Charneca da Caparica,,,1503,Almada,15,Setúbal,PT170,AML,,,,,,,,,,,,,,,,,,,1,132,,,,,,,,,,,,,,,,0,,0,0,0,0,0,0,0,0,0,0,0,0,0,0,0,0,0
020339,CH CAPARICA R ANTÓNIO ANDRADE CLINICA,38.615300,-9.191180,0,0,1,0,,Charnéca De Caparíca Rua António Andrade Clinica,0,,,020339,,1,,,,Almada,,,1503,Almada,15,Setúbal,PT170,AML,,,,,,,,,,,,,,,,,,,0,,,,,,,,,,,,,,,,,0,,0,0,0,0,0,0,0,0,0,0,0,0,0,0,0,0,0
020340,CH CAPARICA R ANTÓNIO ANDRADE CLINICA,38.615410,-9.191020,0,0,1,0,,Charnéca De Caparíca Rua António Andrade Clinica,0,,,020340,,1,,,,Almada,,,1503,Almada,15,Setúbal,PT170,AML,,,,,,,,,,,,,,,,,,,0,,,,,,,,,,,,,,,,,0,,0,0,0,0,0,0,0,0,0,0,0,0,0,0,0,0,0
020341,CH CAPARICA (R ANT ANDRADE) MCDONALD´S,38.612870,-9.189490,0,0,1,0,,Charnéca De Caparíca ( Rua António Andrade ) Mcdonald´s,0,,,020341,,1,,,,Charneca da Caparica,,,1503,Almada,15,Setúbal,PT170,AML,,,,,,,,,,,,,,,,,,,0,,,,,,,,,,,,,,,,,0,,0,0,0,0,0,0,0,0,0,0,0,0,0,0,0,0,0
020342,CH CAPARICA (R ANT ANDRADE) MCDONALD´S,38.612810,-9.189630,0,0,1,0,,Charnéca De Caparíca ( Rua António Andrade ) Mcdonald´s,0,,,020342,,1,,,,Charneca da Caparica,,,1503,Almada,15,Setúbal,PT170,AML,,,,,,,,,,,,,,,,,,,0,,,,,,,,,,,,,,,,,0,,0,0,0,0,0,0,0,0,0,0,0,0,0,0,0,0,0
020343,CH CAPARICA (R ANTANDRADE) PISCINAS MUN,38.611070,-9.188680,0,0,1,0,,Charnéca De Caparíca ( Rua Antandrade ) Piscinas Municipais,0,,,020343,,1,,,,Charneca da Caparica,,,1503,Almada,15,Setúbal,PT170,AML,,,,,,,,,,,,,,,,,,,0,,,,,,,,,,,,,,,,,0,,0,0,0,0,0,0,0,0,0,0,0,0,0,0,0,0,0
020344,CH CAPARICA (R ANTANDRADE) PISCINAS MUN,38.611000,-9.188830,0,0,1,0,,Charnéca De Caparíca ( Rua Antandrade ) Piscinas Municipais,0,,,020344,,1,,,,Charneca da Caparica,,,1503,Almada,15,Setúbal,PT170,AML,,,,,,,,,,,,,,,,,,,0,,,,,,,,,,,,,,,,,0,,0,0,0,0,0,0,0,0,0,0,0,0,0,0,0,0,0
020351,LAZARIM R S MACÁRIO (X) R HUMB MADEIRA,38.642400,-9.200380,0,0,1,0,,Lazarim ( Cruzamento Entre ( Rua São Macário ) E ( Rua Humberto Madeira ) ),0,,,020351,,1,,,,Lazarim,,,1503,Almada,15,Setúbal,PT170,AML,,,,,,,,,,,,,,,,,,,0,,,,,,,,,,,,,,,,,0,,0,0,0,0,0,0,0,0,0,0,0,0,0,0,0,0,0
020352,LAZARIM R S MACÁRIO (X) R HUMB MADEIRA,38.642400,-9.200430,0,0,1,0,,Lazarim ( Cruzamento Entre ( Rua São Macário ) E ( Rua Humberto Madeira ) ),0,,,020352,,1,,,,Alenquer,,,1503,Almada,15,Setúbal,PT170,AML,,,,,,,,,,,,,,,,,,,0,,,,,,,,,,,,,,,,,0,,0,0,0,0,0,0,0,0,0,0,0,0,0,0,0,0,0
020355,MTE CAPARICA IC32 (X) R AREEIRO,38.656369,-9.201173,0,0,1,0,,Cruzamento Entre ( Monte De Caparíca I. C. 32 ) E ( Rua Areeiro ),0,,,020355,,1,,,,Monte da Caparica,,,1503,Almada,15,Setúbal,PT170,AML,,,,,,,,,,,,,,,,,,,0,,,,,,,,,,,,,,,,,0,,0,0,0,0,0,0,0,0,0,0,0,0,0,0,0,0,0
020356,MTE CAPARICA IC32 (X) R AREEIRO,38.656300,-9.201370,0,0,1,0,,Cruzamento Entre ( Monte De Caparíca I. C. 32 ) E ( Rua Areeiro ),0,,,020356,,1,,,,Alenquer,,,1503,Almada,15,Setúbal,PT170,AML,,,,,,,,,,,,,,,,,,,0,,,,,,,,,,,,,,,,,0,,0,0,0,0,0,0,0,0,0,0,0,0,0,0,0,0,0
020357,MONTE CAPARICA (FCT) ROTUNDA,38.659218,-9.202818,0,0,1,0,,Monte De Caparíca ( F. C. T. ) Rotunda,0,,,020357,,1,,,,Monte da Caparica,,,1503,Almada,15,Setúbal,PT170,AML,,,,,,,,,,,,,,,,,,,0,,,,,,,,,,,,,,,,,0,,0,0,0,0,0,0,0,0,0,0,0,0,0,0,0,0,0
020359,MTE CAPARICA R ALFREDO CUNHA (ESCOLA),38.662600,-9.198630,0,0,1,0,,Monte De Caparíca Rua Alfredo Cunha ( Escola ),0,,,020359,,1,,,,Monte da Caparica,,,1503,Almada,15,Setúbal,PT170,AML,,,,,,,,,,,,,,,,,,,0,,,,,,,,,,,,,,,,,0,,0,0,0,1,0,0,0,0,0,0,0,0,0,0,0,0,0
020361,MTE CAP AV TIMOR LOR (METRO) (X) FOMEGA,38.665350,-9.194760,0,0,1,0,,Cruzamento Entre ( Monte De Caparíca Avenida Timor Loro Sae ( Metro ) ) E ( Fómega ),0,,,020361,,1,,,,Monte da Caparica,,,1503,Almada,15,Setúbal,PT170,AML,,,,,,,,,,,,,,,,,,,0,,,,,,,,,,,,,,,,,0,,0,0,0,0,0,0,0,0,0,0,0,0,0,0,0,0,0
020363,CACILHAS (LARGO ALFR DINIS ALEX) TER P19,38.687900,-9.147170,0,0,1,0,,Cacilhas ( Largo Alfredo Dinis Alex) Terminál ( P 19 ),0,,,020363,,1,,,,Cacilhas,,,1503,Almada,15,Setúbal,PT170,AML,,,,,,,,,,,,,,,,,,,1,123,,,,,,,,,,,,,,,,0,,0,0,0,0,0,0,0,0,0,0,0,0,0,0,0,0,0
020367,MTE CAP AV T LOROSAE (X) PORTO BRANDÃO,38.664910,-9.199040,0,0,1,0,,Cruzamento Entre ( Monte De Caparíca Avenida Timor Loro Sae ) E ( Porto Brandão ),0,,,020367,,1,,,,Monte da Caparica,,,1503,Almada,15,Setúbal,PT170,AML,,,,,,,,,,,,,,,,,,,0,,,,,,,,,,,,,,,,,0,,0,0,0,0,0,0,0,0,0,0,0,0,0,0,0,0,0
020371,EN10-1 (X) PERA,38.663260,-9.212610,0,0,1,0,,Cruzamento Entre ( Estrada Nacional 10 - 1 ) E ( Pera ),0,,,020371,,1,,,,Almada,,,1503,Almada,15,Setúbal,PT170,AML,,,,,,,,,,,,,,,,,,,0,,,,,,,,,,,,,,,,,0,,0,0,0,0,0,0,0,0,0,0,0,0,0,0,0,0,0
020375,MURFACEM QTA ZACARIAS (X) R LIBERDADE,38.667040,-9.223400,0,0,1,0,,Cruzamento Entre ( Murfacem Quinta Zacarias ) E ( Rua Liberdade ),0,,,020375,,1,,,,Murfacem,,,1503,Almada,15,Setúbal,PT170,AML,,,,,,,,,,,,,,,,,,,0,,,,,,,,,,,,,,,,,0,,0,0,0,0,0,0,0,0,0,0,0,0,0,0,0,0,0
020376,MURFACEM QTA ZACARIAS (X) R LIBERDADE,38.667180,-9.223390,0,0,1,0,,Cruzamento Entre ( Murfacem Quinta Zacarias ) E ( Rua Liberdade ),0,,,020376,,1,,,,Murfacem,,,1503,Almada,15,Setúbal,PT170,AML,,,,,,,,,,,,,,,,,,,0,,,,,,,,,,,,,,,,,0,,0,0,0,0,0,0,0,0,0,0,0,0,0,0,0,0,0
020379,EN10-1 (23A),38.667980,-9.229390,0,0,1,0,,Estrada Nacional 10 - 1 ( 23 Á ),0,,,020379,,1,,,,Almada,,,1503,Almada,15,Setúbal,PT170,AML,,,,,,,,,,,,,,,,,,,0,,,,,,,,,,,,,,,,,0,,0,0,0,0,0,0,0,0,0,0,0,0,0,0,0,0,0
020380,EN10-1 (23A),38.668010,-9.229200,0,0,1,0,,Estrada Nacional 10 - 1 ( 23 Á ),0,,,020380,,1,,,,Almada,,,1503,Almada,15,Setúbal,PT170,AML,,,,,,,,,,,,,,,,,,,0,,,,,,,,,,,,,,,,,0,,0,0,0,0,0,0,0,0,0,0,0,0,0,0,0,0,0
020381,TRAFARIA (AV BULHÃO PATO N67),38.670900,-9.231030,0,0,1,0,,Trafaria ( Avenida Bulhão Pato ( Número 67 ) ),0,,,020381,,1,,,,Trafaria,,,1503,Almada,15,Setúbal,PT170,AML,,,,,,,,,,,,,,,,,,,0,,,,,,,,,,,,,,,,,0,,0,0,0,1,0,0,0,0,0,0,0,0,0,0,0,0,0
020383,TRAFARIA (AV BULHÃO PATO N29),38.672500,-9.231110,0,0,1,0,,Trafaria ( Avenida Bulhão Pato ( Número 29 ) ),0,,,020383,,1,,,,Trafaria,,,1503,Almada,15,Setúbal,PT170,AML,,,,,,,,,,,,,,,,,,,0,,,,,,,,,,,,,,,,,0,,0,0,0,1,0,0,0,0,0,0,0,0,0,0,0,0,0
020387,TRAFARIA (R LIBERDADE N10),38.672800,-9.232260,0,0,1,0,,Trafaria ( Rua Liberdade ( Número 10 ) ),0,,,020387,,1,,,,Trafaria,,,1503,Almada,15,Setúbal,PT170,AML,,,,,,,,,,,,,,,,,,,0,,,,,,,,,,,,,,,,,0,,0,0,0,1,0,0,0,0,0,0,0,0,0,0,0,0,0
020389,TRAFARIA (R LIBERDADE N46),38.671020,-9.231760,0,0,1,0,,Trafaria ( Rua Liberdade ( Número 46 ) ),0,,,020389,,1,,,,Trafaria,,,1503,Almada,15,Setúbal,PT170,AML,,,,,,,,,,,,,,,,,,,0,,,,,,,,,,,,,,,,,0,,0,0,0,1,0,0,0,0,0,0,0,0,0,0,0,0,0
020393,EN10-1 (X) PERA,38.662900,-9.212020,0,0,1,0,,Cruzamento Entre ( Estrada Nacional 10 - 1 ) E ( Pera ),0,,,020393,,1,,,,Almada,,,1503,Almada,15,Setúbal,PT170,AML,,,,,,,,,,,,,,,,,,,0,,,,,,,,,,,,,,,,,0,,0,0,0,0,0,0,0,0,0,0,0,0,0,0,0,0,0
020395,TORRE CAPARICA (EN 10-1) (X) FACULDADE,38.663800,-9.205240,0,0,1,0,,Cruzamento Entre ( Torre Caparica ( Estrada Nacional 10 - 1 ) ) E ( Faculdade ),0,,,020395,,1,,,,Torre da Caparica,,,1503,Almada,15,Setúbal,PT170,AML,,,,,,,,,,,,,,,,,,,0,,,,,,,,,,,,,,,,,0,,0,0,0,1,0,0,0,0,0,0,0,0,0,0,0,0,0
020396,TORRE CAPARICA (EN 10-1) (X) FACULDADE,38.663630,-9.205240,0,0,1,0,,Cruzamento Entre ( Torre Caparica ( Estrada Nacional 10 - 1 ) ) E ( Faculdade ),0,,,020396,,1,,,,Torre da Caparica,,,1503,Almada,15,Setúbal,PT170,AML,,,,,,,,,,,,,,,,,,,0,,,,,,,,,,,,,,,,,0,,0,0,0,1,0,0,0,0,0,0,0,0,0,0,0,0,0
020397,MTE CAPARICA AV TORRADO SILVA (ROT),38.663600,-9.188660,0,0,1,0,,Monte De Caparíca Avenida Torrado Silva ( Rotunda ),0,,,020397,,1,,,,Monte da Caparica,,,1503,Almada,15,Setúbal,PT170,AML,,,,,,,,,,,,,,,,,,,0,,,,,,,,,,,,,,,,,0,,0,0,0,0,0,0,0,0,0,0,0,0,0,0,0,0,0
020399,AV D NUNO ÁLV PEREIRA PÇA S J BAPTISTA,38.679600,-9.157090,0,0,1,0,,Avenida Dom Nuno Álvares Pereira Práça São João Baptista,0,,,020399,,1,,,,Almada,,,1503,Almada,15,Setúbal,PT170,AML,,,,,,,,,,,,,,,,,,,1,121,,,,,,,,,,,,,,,,0,,0,0,0,1,0,0,0,0,0,0,0,0,0,0,0,0,0
020403,Cacilhas (Terminal) P2,38.687611,-9.146776,0,0,1,0,,Cacilhas ( Terminal ) ( P 2 ),0,,,020403,,1,,,,Cacilhas,,,1503,Almada,15,Setúbal,PT170,AML,,,,,,,,,,,,,,,,,,,1,123,,,,,,,,,,,,,,,,0,,0,0,0,0,0,0,0,0,0,0,0,0,0,0,0,0,0
020405,ALMADA (R D JOÃO CASTRO N78),38.675750,-9.166830,0,0,1,0,,Almada ( Rua Dom João Castro ( Número 78 ) ),0,,,020405,,1,,,,Almada,,,1503,Almada,15,Setúbal,PT170,AML,,,,,,,,,,,,,,,,,,,0,,,,,,,,,,,,,,,,,0,,0,0,0,1,0,0,0,0,0,0,0,0,0,0,0,0,0
020407,PRAGAL (R DIREITA PRAGAL N26),38.673830,-9.169740,0,0,1,0,,Pragal ( Rua Direita Pragal ( Número 26 ) ),0,,,020407,,1,,,,Pragal,,,1503,Almada,15,Setúbal,PT170,AML,,,,,,,,,,,,,,,,,,,0,,,,,,,,,,,,,,,,,0,,0,0,0,1,0,0,0,0,0,0,0,0,0,0,0,0,0
020409,LAZARIM (EN10-1) (X) SOBREDA,38.646900,-9.199130,0,0,1,0,,Cruzamento Entre ( Lazarim ( Estrada Nacional 10 - 1 ) ) E ( Sobreda ),0,,,020409,,1,,,,Alenquer,,,1503,Almada,15,Setúbal,PT170,AML,,,,,,,,,,,,,,,,,,,0,,,,,,,,,,,,,,,,,0,,0,0,0,0,0,0,0,0,0,0,0,0,0,0,0,0,0
020411,CH CAPARICA AL AMÁLIA RODRIGUES (ROT),38.623260,-9.198300,0,0,1,0,,Charnéca De Caparíca Alameda Amália Rodrigues ( Rotunda ),0,,,020411,,1,,,,Charneca da Caparica,,,1503,Almada,15,Setúbal,PT170,AML,,,,,,,,,,,,,,,,,,,0,,,,,,,,,,,,,,,,,0,,0,0,0,0,0,0,0,0,0,0,0,0,0,0,0,0,0
020412,CH CAPARICA AL AMÁLIA RODRIGUES (ROT),38.623430,-9.198260,0,0,1,0,,Charnéca De Caparíca Alameda Amália Rodrigues ( Rotunda ),0,,,020412,,1,,,,Charneca da Caparica,,,1503,Almada,15,Setúbal,PT170,AML,,,,,,,,,,,,,,,,,,,0,,,,,,,,,,,,,,,,,0,,0,0,0,0,0,0,0,0,0,0,0,0,0,0,0,0,0
020413,CASAL POÇO (R 25 ABRIL N64),38.620900,-9.198930,0,0,1,0,,Casal Poço ( Rua 25 Abril ( Número 64 ) ),0,,,020413,,1,,,,Casal do Poço,,,1503,Almada,15,Setúbal,PT170,AML,,,,,,,,,,,,,,,,,,,0,,,,,,,,,,,,,,,,,0,,0,0,0,0,0,0,0,0,0,0,0,0,0,0,0,0,0
020414,CASAL POÇO (R 25 ABRIL N64),38.621000,-9.199060,0,0,1,0,,Casal Poço ( Rua 25 Abril ( Número 64 ) ),0,,,020414,,1,,,,Casal do Poço,,,1503,Almada,15,Setúbal,PT170,AML,,,,,,,,,,,,,,,,,,,0,,,,,,,,,,,,,,,,,0,,0,0,0,0,0,0,0,0,0,0,0,0,0,0,0,0,0
020415,CASAL POÇO (R 25 ABRIL N115),38.619260,-9.196460,0,0,1,0,,Casal Poço ( Rua 25 Abril ( Número 115 ) ),0,,,020415,,1,,,,Casal do Poço,,,1503,Almada,15,Setúbal,PT170,AML,,,,,,,,,,,,,,,,,,,0,,,,,,,,,,,,,,,,,0,,0,0,0,0,0,0,0,0,0,0,0,0,0,0,0,0,0
020416,CASAL POÇO (R 25 ABRIL N115),38.619300,-9.196380,0,0,1,0,,Casal Poço ( Rua 25 Abril ( Número 115 ) ),0,,,020416,,1,,,,Casal do Poço,,,1503,Almada,15,Setúbal,PT170,AML,,,,,,,,,,,,,,,,,,,0,,,,,,,,,,,,,,,,,0,,0,0,0,0,0,0,0,0,0,0,0,0,0,0,0,0,0
020417,CASAL POÇO (R JOSÉ ESTEVÃO N4),38.617330,-9.194190,0,0,1,0,,Casal Poço ( Rua José És-tevão ( Número 4 ) ),0,,,020417,,1,,,,Casal do Poço,,,1503,Almada,15,Setúbal,PT170,AML,,,,,,,,,,,,,,,,,,,0,,,,,,,,,,,,,,,,,0,,0,0,0,0,0,0,0,0,0,0,0,0,0,0,0,0,0
020418,CASAL POÇO (R JOSÉ ESTEVÃO N4),38.617270,-9.194270,0,0,1,0,,Casal Poço ( Rua José És-tevão ( Número 4 ) ),0,,,020418,,1,,,,Casal do Poço,,,1503,Almada,15,Setúbal,PT170,AML,,,,,,,,,,,,,,,,,,,0,,,,,,,,,,,,,,,,,0,,0,0,0,0,0,0,0,0,0,0,0,0,0,0,0,0,0
020419,CH CAP R ANT ANDR (X) R DO PINHEIRINHO,38.607630,-9.187000,0,0,1,0,,Charnéca De Caparíca ( Cruzamento Entre ( Rua António André ) E ( Rua Do Pinheirinho ) ),0,,,020419,,1,,,,Charneca da Caparica,,,1503,Almada,15,Setúbal,PT170,AML,,,,,,,,,,,,,,,,,,,0,,,,,,,,,,,,,,,,,0,,0,0,0,1,0,0,0,0,0,0,0,0,0,0,0,0,0
020421,CH CAPARICA R PEDRO COSTA 13 (ESCOLA),38.605380,-9.185950,0,0,1,0,,Charnéca De Caparíca Rua Pedro Costa 13 ( Escola ),0,,,020421,,1,,,,Charneca da Caparica,,,1503,Almada,15,Setúbal,PT170,AML,,,,,,,,,,,,,,,,,,,1,114,,,,,,,,,,,,,,,,0,,0,0,0,1,0,0,0,0,0,0,0,0,0,0,0,0,0
020422,CH CAPARICA R PEDRO COSTA 13 (ESCOLA),38.605390,-9.186410,0,0,1,0,,Charnéca De Caparíca Rua Pedro Costa 13 ( Escola ),0,,,020422,,1,,,,Charneca da Caparica,,,1503,Almada,15,Setúbal,PT170,AML,,,,,,,,,,,,,,,,,,,1,113,,,,,,,,,,,,,,,,0,,0,0,0,1,0,0,0,0,0,0,0,0,0,0,0,0,0
020423,CH CAPARICA (R ANTÓNIO ANDRADE1215),38.608840,-9.187520,0,0,1,0,,Charnéca De Caparíca ( Rua António Andrade 1215 ),0,,,020423,,1,,,,Charneca da Caparica,,,1503,Almada,15,Setúbal,PT170,AML,,,,,,,,,,,,,,,,,,,0,,,,,,,,,,,,,,,,,0,,0,0,0,0,0,0,0,0,0,0,0,0,0,0,0,0,0
020429,Cacilhas (Terminal) P6,38.687613,-9.146894,0,0,1,0,,Cacilhas ( Terminal ) ( P 6 ),0,,,020429,,1,,,,Cacilhas,,,1503,Almada,15,Setúbal,PT170,AML,,,,,,,,,,,,,,,,,,,1,123,,,,,,,,,,,,,,,,0,,0,0,0,0,0,0,0,0,0,0,0,0,0,0,0,0,0
020435,COSTA CAPARICA (IC 20) CEMITÉRIO,38.647330,-9.229750,0,0,1,0,,Costa Da Caparíca ( I. C. 20 ) Cemitério,0,,,020435,,1,,,,Costa da Caparica,,,1503,Almada,15,Setúbal,PT170,AML,,,,,,,,,,,,,,,,,,,0,,,,,,,,,,,,,,,,,0,,0,0,0,0,0,0,0,0,0,0,0,0,0,0,0,0,0
020443,C CAPARICA (AV G H DELGADO) PARQUE,38.634500,-9.230370,0,0,1,0,,Costa Da Caparíca ( Avenida General Humberto Delgado ) Parque,0,,,020443,,1,,,,Alenquer,,,1503,Almada,15,Setúbal,PT170,AML,,,,,,,,,,,,,,,,,,,0,,,,,,,,,,,,,,,,,0,,0,0,0,0,0,0,0,0,0,0,0,0,0,0,0,0,0
020444,C CAPARICA (AV G H DELGADO) PARQUE,38.634400,-9.230400,0,0,1,0,,Costa Da Caparíca ( Avenida General Humberto Delgado ) Parque,0,,,020444,,1,,,,Alenquer,,,1503,Almada,15,Setúbal,PT170,AML,,,,,,,,,,,,,,,,,,,0,,,,,,,,,,,,,,,,,0,,0,0,0,0,0,0,0,0,0,0,0,0,0,0,0,0,0
020447,MONTE CAPARICA (IC 20) ESC CASAS VELHAS,38.657070,-9.200660,0,0,1,0,,Monte De Caparíca ( I. C. 20 ) Escola Casas Velhas,0,,,020447,,1,,,,Monte da Caparica,,,1503,Almada,15,Setúbal,PT170,AML,,,,,,,,,,,,,,,,,,,0,,,,,,,,,,,,,,,,,0,,0,0,0,0,0,0,0,0,0,0,0,0,0,0,0,0,0
020449,Cacilhas (Terminal) P1,38.687771,-9.146789,0,0,1,0,,Cacilhas ( Terminal ) ( P 1 ),0,,,020449,,1,,,,Cacilhas,,,1503,Almada,15,Setúbal,PT170,AML,,,,,,,,,,,,,,,,,,,0,,,,,,,,,,,,,,,,,0,,0,0,0,0,0,0,0,0,0,0,0,0,0,0,0,0,0
020451,COSTA CAP AV AF ALBUQ 8A (X) R MACAU,38.648320,-9.235170,0,0,1,0,,Costa Da Caparíca ( Cruzamento Entre ( Avenida Afonso Albuquerque 8 Á ) E ( Rua Macau ) ),0,,,020451,,1,,,,Costa da Caparica,,,1503,Almada,15,Setúbal,PT170,AML,,,,,,,,,,,,,,,,,,,0,,,,,,,,,,,,,,,,,0,,0,0,0,1,0,0,0,0,0,0,0,0,0,0,0,0,0
020452,COSTA CAP AV AF ALBUQ 8A (X) R MACAU,38.648250,-9.235440,0,0,1,0,,Costa Da Caparíca ( Cruzamento Entre ( Avenida Afonso Albuquerque 8 Á ) E ( Rua Macau ) ),0,,,020452,,1,,,,Costa da Caparica,,,1503,Almada,15,Setúbal,PT170,AML,,,,,,,,,,,,,,,,,,,0,,,,,,,,,,,,,,,,,0,,0,0,0,1,0,0,0,0,0,0,0,0,0,0,0,0,0
020453,COSTA CAP (EN10-1 217) AV AF ALBUQ N219,38.650910,-9.236870,0,0,1,0,,Costa Da Caparíca ( Estrada Nacional 10 - 1 217 ) Avenida Afonso Albuquerque ( Número 219 ),0,,,020453,,1,,,,Costa da Caparica,,,1503,Almada,15,Setúbal,PT170,AML,,,,,,,,,,,,,,,,,,,0,,,,,,,,,,,,,,,,,0,,0,0,0,0,0,0,0,0,0,0,0,0,0,0,0,0,0
020454,COSTA CAP (EN10-1 217) AV AF ALBUQ N219,38.651010,-9.236570,0,0,1,0,,Costa Da Caparíca ( Estrada Nacional 10 - 1 217 ) Avenida Afonso Albuquerque ( Número 219 ),0,,,020454,,1,,,,Costa da Caparica,,,1503,Almada,15,Setúbal,PT170,AML,,,,,,,,,,,,,,,,,,,0,,,,,,,,,,,,,,,,,0,,0,0,0,0,0,0,0,0,0,0,0,0,0,0,0,0,0
020455,COSTA CAPARICA (AV MAR N22),38.652060,-9.234830,0,0,1,0,,Costa Da Caparíca ( Avenida Mar ( Número 22 ) ),0,,,020455,,1,,,,Costa da Caparica,,,1503,Almada,15,Setúbal,PT170,AML,,,,,,,,,,,,,,,,,,,0,,,,,,,,,,,,,,,,,0,,0,0,0,0,0,0,0,0,0,0,0,0,0,0,0,0,0
020456,COSTA CAPARICA (AV MAR N22),38.652130,-9.234980,0,0,1,0,,Costa Da Caparíca ( Avenida Mar ( Número 22 ) ),0,,,020456,,1,,,,Costa da Caparica,,,1503,Almada,15,Setúbal,PT170,AML,,,,,,,,,,,,,,,,,,,0,,,,,,,,,,,,,,,,,0,,0,0,0,0,0,0,0,0,0,0,0,0,0,0,0,0,0
020457,COSTA CAPARICA (AV OCEANO N10),38.654700,-9.235880,0,0,1,0,,Costa Da Caparíca ( Avenida Oceano ( Número 10 ) ),0,,,020457,,1,,,,Costa da Caparica,,,1503,Almada,15,Setúbal,PT170,AML,,,,,,,,,,,,,,,,,,,0,,,,,,,,,,,,,,,,,0,,0,0,0,0,0,0,0,0,0,0,0,0,0,0,0,0,0
020458,COSTA CAPARICA (AV OCEANO N10),38.654600,-9.235920,0,0,1,0,,Costa Da Caparíca ( Avenida Oceano ( Número 10 ) ),0,,,020458,,1,,,,Costa da Caparica,,,1503,Almada,15,Setúbal,PT170,AML,,,,,,,,,,,,,,,,,,,0,,,,,,,,,,,,,,,,,0,,0,0,0,0,0,0,0,0,0,0,0,0,0,0,0,0,0
020459,C CAP AV OCEANO (X) R O E SERPA (ESCOLA),38.656400,-9.236790,0,0,1,0,,Costa Da Caparíca ( Cruzamento Entre ( Avenida Oceano ) E ( Rua O E Serpa ( Escola ) ) ),0,,,020459,,1,,,,Costa da Caparica,,,1503,Almada,15,Setúbal,PT170,AML,,,,,,,,,,,,,,,,,,,0,,,,,,,,,,,,,,,,,0,,0,0,0,0,0,0,0,0,0,0,0,0,0,0,0,0,0
020460,C CAP AV OCEANO (X) R O E SERPA (ESCOLA),38.656390,-9.236900,0,0,1,0,,Costa Da Caparíca ( Cruzamento Entre ( Avenida Oceano ) E ( Rua O E Serpa ( Escola ) ) ),0,,,020460,,1,,,,Costa da Caparica,,,1503,Almada,15,Setúbal,PT170,AML,,,,,,,,,,,,,,,,,,,0,,,,,,,,,,,,,,,,,0,,0,0,0,0,0,0,0,0,0,0,0,0,0,0,0,0,0
020461,COSTA CAPARICA (R MIGUEL TORGA 2),38.658300,-9.239890,0,0,1,0,,Costa Da Caparíca ( Rua Miguel Torga 2 ),0,,,020461,,1,,,,Costa da Caparica,,,1503,Almada,15,Setúbal,PT170,AML,,,,,,,,,,,,,,,,,,,0,,,,,,,,,,,,,,,,,0,,0,0,0,0,0,0,0,0,0,0,0,0,0,0,0,0,0
020462,COSTA CAPARICA (R MIGUEL TORGA 2),38.658400,-9.239880,0,0,1,0,,Costa Da Caparíca ( Rua Miguel Torga 2 ),0,,,020462,,1,,,,Costa da Caparica,,,1503,Almada,15,Setúbal,PT170,AML,,,,,,,,,,,,,,,,,,,0,,,,,,,,,,,,,,,,,0,,0,0,0,0,0,0,0,0,0,0,0,0,0,0,0,0,0
020467,COSTA CAPARICA (R MANUEL AGRO FAR N50),38.648541,-9.236155,0,0,1,0,,Costa Da Caparíca ( Rua Manuel Agro Far ( Número 50 ) ),0,,,020467,,1,,,,Costa da Caparica,,,1503,Almada,15,Setúbal,PT170,AML,,,,,,,,,,,,,,,,,,,0,,,,,,,,,,,,,,,,,0,,0,0,0,1,0,0,0,0,0,0,0,0,0,0,0,0,0
020473,CH CAPARICA (R D JOÃO V N38),38.597000,-9.187610,0,0,1,0,,Charnéca De Caparíca ( Rua Dom João Quinto ( Número 38 ) ),0,,,020473,,1,,,,Charneca da Caparica,,,1503,Almada,15,Setúbal,PT170,AML,,,,,,,,,,,,,,,,,,,0,,,,,,,,,,,,,,,,,0,,0,0,0,0,0,0,0,0,0,0,0,0,0,0,0,0,0
020474,CH CAPARICA (R D JOÃO V N38),38.597000,-9.187780,0,0,1,0,,Charnéca De Caparíca ( Rua Dom João Quinto ( Número 38 ) ),0,,,020474,,1,,,,Charneca da Caparica,,,1503,Almada,15,Setúbal,PT170,AML,,,,,,,,,,,,,,,,,,,0,,,,,,,,,,,,,,,,,0,,0,0,0,0,0,0,0,0,0,0,0,0,0,0,0,0,0
020475,CH CAPARICA (R D JOÃO V 62),38.594900,-9.188550,0,0,1,0,,Charnéca De Caparíca ( Rua Dom João Quinto 62 ),0,,,020475,,1,,,,Charneca da Caparica,,,1503,Almada,15,Setúbal,PT170,AML,,,,,,,,,,,,,,,,,,,0,,,,,,,,,,,,,,,,,0,,0,0,0,0,0,0,0,0,0,0,0,0,0,0,0,0,0
020476,CH CAPARICA (R D JOÃO V 62),38.594890,-9.188400,0,0,1,0,,Charnéca De Caparíca ( Rua Dom João Quinto 62 ),0,,,020476,,1,,,,Charneca da Caparica,,,1503,Almada,15,Setúbal,PT170,AML,,,,,,,,,,,,,,,,,,,0,,,,,,,,,,,,,,,,,0,,0,0,0,0,0,0,0,0,0,0,0,0,0,0,0,0,0
020477,CH CAPARICA (R D JOÃO V 120),38.591510,-9.190990,0,0,1,0,,Charnéca De Caparíca ( Rua Dom João Quinto 120 ),0,,,020477,,1,,,,Charneca da Caparica,,,1503,Almada,15,Setúbal,PT170,AML,,,,,,,,,,,,,,,,,,,0,,,,,,,,,,,,,,,,,0,,0,0,0,0,0,0,0,0,0,0,0,0,0,0,0,0,0
020478,CH CAPARICA (R D JOÃO V 120),38.591530,-9.191170,0,0,1,0,,Charnéca De Caparíca ( Rua Dom João Quinto 120 ),0,,,020478,,1,,,,Charneca da Caparica,,,1503,Almada,15,Setúbal,PT170,AML,,,,,,,,,,,,,,,,,,,0,,,,,,,,,,,,,,,,,0,,0,0,0,0,0,0,0,0,0,0,0,0,0,0,0,0,0
020479,CH CAPARICA (R D JOÃO V 137),38.589000,-9.193020,0,0,1,0,,Charnéca De Caparíca ( Rua Dom João Quinto 137 ),0,,,020479,,1,,,,Charneca da Caparica,,,1503,Almada,15,Setúbal,PT170,AML,,,,,,,,,,,,,,,,,,,0,,,,,,,,,,,,,,,,,0,,0,0,0,0,0,0,0,0,0,0,0,0,0,0,0,0,0
020480,CH CAPARICA (R D JOÃO V 137),38.589010,-9.192840,0,0,1,0,,Charnéca De Caparíca ( Rua Dom João Quinto 137 ),0,,,020480,,1,,,,Charneca da Caparica,,,1503,Almada,15,Setúbal,PT170,AML,,,,,,,,,,,,,,,,,,,0,,,,,,,,,,,,,,,,,0,,0,0,0,0,0,0,0,0,0,0,0,0,0,0,0,0,0
020489,Cacilhas (Terminal) P4,38.687289,-9.146748,0,0,1,0,,Cacilhas ( Terminal ) ( P 4 ),0,,,020489,,1,,,,Cacilhas,,,1503,Almada,15,Setúbal,PT170,AML,,,,,,,,,,,,,,,,,,,0,,,,,,,,,,,,,,,,,0,,0,0,0,0,0,0,0,0,0,0,0,0,0,0,0,0,0
020491,CACILHAS (AV 25 ABRIL N3A),38.684200,-9.147110,0,0,1,0,,Cacilhas ( Avenida 25 Abril ( Número 3 Á ) ),0,,,020491,,1,,,,Cacilhas,,,1503,Almada,15,Setúbal,PT170,AML,,,,,,,,,,,,,,,,,,,0,,,,,,,,,,,,,,,,,0,,0,0,0,0,0,0,0,0,0,0,0,0,0,0,0,0,0
020492,CACILHAS (AV 25 ABRIL N3A),38.684210,-9.147230,0,0,1,0,,Cacilhas ( Avenida 25 Abril ( Número 3 Á ) ),0,,,020492,,1,,,,Cacilhas,,,1503,Almada,15,Setúbal,PT170,AML,,,,,,,,,,,,,,,,,,,0,,,,,,,,,,,,,,,,,0,,0,0,0,0,0,0,0,0,0,0,0,0,0,0,0,0,0
020501,LARANJEIRO R CRUZ VERMELHA 7A (ESCOLA),38.660650,-9.157990,0,0,1,0,,Laranjeiro Rua Cruz Vermelha 7 Á ( Escola ),0,,,020501,,1,,,,Laranjeiro,,,1503,Almada,15,Setúbal,PT170,AML,,,,,,,,,,,,,,,,,,,0,,,,,,,,,,,,,,,,,0,,0,0,0,1,0,0,0,0,0,0,0,0,0,0,0,0,0
020502,LARANJEIRO R CRUZ VERMELHA 7A (ESCOLA),38.660740,-9.158160,0,0,1,0,,Laranjeiro Rua Cruz Vermelha 7 Á ( Escola ),0,,,020502,,1,,,,Laranjeiro,,,1503,Almada,15,Setúbal,PT170,AML,,,,,,,,,,,,,,,,,,,0,,,,,,,,,,,,,,,,,0,,0,0,0,1,0,0,0,0,0,0,0,0,0,0,0,0,0
020511,FEIJÓPÇA FRANCISCO TABORDA (PARQUE/ROT),38.651620,-9.160430,0,0,1,0,,Feijó Práça Francisco Taborda ( Parque/rotunda ),0,,,020511,,1,,,,Feijó,,,1503,Almada,15,Setúbal,PT170,AML,,,,,,,,,,,,,,,,,,,0,,,,,,,,,,,,,,,,,0,,0,0,0,1,0,0,0,0,0,0,0,0,0,0,0,0,0
020512,FEIJÓPÇA FRANCISCO TABORDA (PARQUE/ROT),38.651700,-9.160410,0,0,1,0,,Feijó Práça Francisco Taborda ( Parque/rotunda ),0,,,020512,,1,,,,Feijó,,,1503,Almada,15,Setúbal,PT170,AML,,,,,,,,,,,,,,,,,,,0,,,,,,,,,,,,,,,,,0,,0,0,0,1,0,0,0,0,0,0,0,0,0,0,0,0,0
020515,FEIJÓ (R ALEMBRANÇA 29C),38.653060,-9.165530,0,0,1,0,,Feijó ( Rua Alembrança 29 Cê ),0,,,020515,,1,,,,Feijó,,,1503,Almada,15,Setúbal,PT170,AML,,,,,,,,,,,,,,,,,,,0,,,,,,,,,,,,,,,,,0,,0,0,0,1,0,0,0,0,0,0,0,0,0,0,0,0,0
020516,FEIJÓ (R ALEMBRANÇA 29C),38.652940,-9.165540,0,0,1,0,,Feijó ( Rua Alembrança 29 Cê ),0,,,020516,,1,,,,Feijó,,,1503,Almada,15,Setúbal,PT170,AML,,,,,,,,,,,,,,,,,,,0,,,,,,,,,,,,,,,,,0,,0,0,0,1,0,0,0,0,0,0,0,0,0,0,0,0,0
020525,VL MOURELOS R ANT CALADO (X) R QTA SEC,38.660830,-9.181690,0,0,1,0,,Vale Mourelos ( Cruzamento Entre ( Rua António Calado ) E ( Rua Quinta Secundária ) ),0,,,020525,,1,,,,Vale Mourelos,,,1503,Almada,15,Setúbal,PT170,AML,,,,,,,,,,,,,,,,,,,0,,,,,,,,,,,,,,,,,0,,0,0,0,0,0,0,0,0,0,0,0,0,0,0,0,0,0
020526,VL MOURELOS R ANT CALADO (X) R QTA SEC,38.660990,-9.181750,0,0,1,0,,Vale Mourelos ( Cruzamento Entre ( Rua António Calado ) E ( Rua Quinta Secundária ) ),0,,,020526,,1,,,,Vale Mourelos,,,1503,Almada,15,Setúbal,PT170,AML,,,,,,,,,,,,,,,,,,,0,,,,,,,,,,,,,,,,,0,,0,0,0,0,0,0,0,0,0,0,0,0,0,0,0,0,0
020539,TRAFARIA N377-1 (X) R 1º MAIO (ESCOLA),38.669950,-9.232730,0,0,1,0,,Cruzamento Entre ( Trafaria Estrada Nacional 377 1 ) E ( Rua Primeiro De Maio ( Escola ) ),0,,,020539,,1,,,,Trafaria,,,1503,Almada,15,Setúbal,PT170,AML,,,,,,,,,,,,,,,,,,,0,,,,,,,,,,,,,,,,,0,,0,0,0,1,0,0,0,0,0,0,0,0,0,0,0,0,0
020540,TRAFARIA N377-1 (X) R 1º MAIO (ESCOLA),38.669800,-9.232800,0,0,1,0,,Cruzamento Entre ( Trafaria Estrada Nacional 377 1 ) E ( Rua Primeiro De Maio ( Escola ) ),0,,,020540,,1,,,,Alenquer,,,1503,Almada,15,Setúbal,PT170,AML,,,,,,,,,,,,,,,,,,,0,,,,,,,,,,,,,,,,,0,,0,0,0,0,0,0,0,0,0,0,0,0,0,0,0,0,0
020541,TRAFARIA ESTR MILITAR (X) ESC BÁSICA,38.664800,-9.231400,0,0,1,0,,Trafaria ( Cruzamento Entre ( Estrada Militar ) E ( Escola Básica ) ),0,,,020541,,1,,,,Trafaria,,,1503,Almada,15,Setúbal,PT170,AML,,,,,,,,,,,,,,,,,,,0,,,,,,,,,,,,,,,,,0,,0,0,0,0,0,0,0,0,0,0,0,0,0,0,0,0,0
020542,TRAFARIA ESTR MILITAR (X) ESC BÁSICA,38.664800,-9.231450,0,0,1,0,,Trafaria ( Cruzamento Entre ( Estrada Militar ) E ( Escola Básica ) ),0,,,020542,,1,,,,Trafaria,,,1503,Almada,15,Setúbal,PT170,AML,,,,,,,,,,,,,,,,,,,0,,,,,,,,,,,,,,,,,0,,0,0,0,0,0,0,0,0,0,0,0,0,0,0,0,0,0
020545,QTA CORVINA ESTR MILITAR 65 (X) R VINHA,38.659680,-9.231190,0,0,1,0,,Quinta Corvina ( Cruzamento Entre ( Estrada Militar 65 ) E ( Rua Vinha ) ),0,,,020545,,1,,,,Quinta da Corvina,,,1503,Almada,15,Setúbal,PT170,AML,,,,,,,,,,,,,,,,,,,0,,,,,,,,,,,,,,,,,0,,0,0,0,0,0,0,0,0,0,0,0,0,0,0,0,0,0
020546,QTA CORVINA ESTR MILITAR 65 (X) R VINHA,38.659730,-9.231290,0,0,1,0,,Quinta Corvina ( Cruzamento Entre ( Estrada Militar 65 ) E ( Rua Vinha ) ),0,,,020546,,1,,,,Quinta da Corvina,,,1503,Almada,15,Setúbal,PT170,AML,,,,,,,,,,,,,,,,,,,0,,,,,,,,,,,,,,,,,0,,0,0,0,0,0,0,0,0,0,0,0,0,0,0,0,0,0
020549,QTA RAPOSEIRA (R BENTO GONC N78),38.663800,-9.236360,0,0,1,0,,Quinta Raposeira ( Rua Bento Gonc ( Número 78 ) ),0,,,020549,,1,,,,Quinta da Raposeira,,,1503,Almada,15,Setúbal,PT170,AML,,,,,,,,,,,,,,,,,,,0,,,,,,,,,,,,,,,,,0,,0,0,0,0,0,0,0,0,0,0,0,0,0,0,0,0,0
020550,QTA RAPOSEIRA (R BENTO GONC N78),38.663700,-9.236370,0,0,1,0,,Quinta Raposeira ( Rua Bento Gonc ( Número 78 ) ),0,,,020550,,1,,,,Alenquer,,,1503,Almada,15,Setúbal,PT170,AML,,,,,,,,,,,,,,,,,,,0,,,,,,,,,,,,,,,,,0,,0,0,0,0,0,0,0,0,0,0,0,0,0,0,0,0,0
020555,LAZARIM EN10-1 (X) COSTA (CAMPO FLORES),38.647550,-9.201650,0,0,1,0,,Lazarim ( Cruzamento Entre ( Estrada Nacional 10 - 1 ) E ( Costa ( Campo Flores ) ) ),0,,,020555,,1,,,,Lazarim,,,1503,Almada,15,Setúbal,PT170,AML,,,,,,,,,,,,,,,,,,,0,,,,,,,,,,,,,,,,,0,,0,0,0,1,0,0,0,0,0,0,0,0,0,0,0,0,0
020556,LAZARIM EN10-1 (X) COSTA (CAMPO FLORES),38.647400,-9.201680,0,0,1,0,,Lazarim ( Cruzamento Entre ( Estrada Nacional 10 - 1 ) E ( Costa ( Campo Flores ) ) ),0,,,020556,,1,,,,Alenquer,,,1503,Almada,15,Setúbal,PT170,AML,,,,,,,,,,,,,,,,,,,0,,,,,,,,,,,,,,,,,0,,0,0,0,0,0,0,0,0,0,0,0,0,0,0,0,0,0
020559,TRAFARIA (R ARTILHARIA COSTA) GNR,38.670740,-9.236270,0,0,1,0,,Trafaria ( Rua Artilharia Costa ) Guárda Republicana,0,,,020559,,1,,,,Trafaria,,,1503,Almada,15,Setúbal,PT170,AML,,,,,,,,,,,,,,,,,,,0,,,,,,,,,,,,,,,,,0,,0,0,0,1,0,0,0,0,0,0,0,0,0,0,0,0,0
020560,TRAFARIA (R ARTILHARIA COSTA) GNR,38.670640,-9.236410,0,0,1,0,,Trafaria ( Rua Artilharia Costa ) Guárda Republicana,0,,,020560,,1,,,,Trafaria,,,1503,Almada,15,Setúbal,PT170,AML,,,,,,,,,,,,,,,,,,,0,,,,,,,,,,,,,,,,,0,,0,0,0,1,0,0,0,0,0,0,0,0,0,0,0,0,0
020565,COSTA CAPARICA (EN10-1 AV AF ALBUQ113),38.662160,-9.242860,0,0,1,0,,Costa Da Caparíca ( Estrada Nacional 10 - 1 Avenida Afonso Albuquerque 113 ),0,,,020565,,1,,,,Costa da Caparica,,,1503,Almada,15,Setúbal,PT170,AML,,,,,,,,,,,,,,,,,,,0,,,,,,,,,,,,,,,,,0,,0,0,0,0,0,0,0,0,0,0,0,0,0,0,0,0,0
020567,CV VAPOR R MÁRIO VIEGAS (PORTÃO MAR),38.665300,-9.246310,0,0,1,0,,Cóva Vapor Rua Mário Viegas ( Portão Mar ),0,,,020567,,1,,,,Cova do Vapor,,,1503,Almada,15,Setúbal,PT170,AML,,,,,,,,,,,,,,,,,,,0,,,,,,,,,,,,,,,,,0,,0,0,0,0,0,0,0,0,0,0,0,0,0,0,0,0,0
020568,CV VAPOR R MÁRIO VIEGAS (PORTÃO MAR),38.665330,-9.246200,0,0,1,0,,Cóva Vapor Rua Mário Viegas ( Portão Mar ),0,,,020568,,1,,,,Cova do Vapor,,,1503,Almada,15,Setúbal,PT170,AML,,,,,,,,,,,,,,,,,,,0,,,,,,,,,,,,,,,,,0,,0,0,0,0,0,0,0,0,0,0,0,0,0,0,0,0,0
020571,S JOÃO CAP (AV AFONSO DE ALBUQ 129),38.660290,-9.241860,0,0,1,0,,São João Da Caparíca ( Avenida Afonso De Albuquerque 129 ),0,,,020571,,1,,,,São João da Caparica,,,1503,Almada,15,Setúbal,PT170,AML,,,,,,,,,,,,,,,,,,,0,,,,,,,,,,,,,,,,,0,,0,0,0,0,0,0,0,0,0,0,0,0,0,0,0,0,0
020573,S JOÃO CAP (EN10-1) AV AFONSO ALBUQ 129,38.660620,-9.241720,0,0,1,0,,São João Da Caparíca ( Estrada Nacional 10 - 1 ) Avenida Afonso Albuquerque 129,0,,,020573,,1,,,,São João da Caparica,,,1503,Almada,15,Setúbal,PT170,AML,,,,,,,,,,,,,,,,,,,0,,,,,,,,,,,,,,,,,0,,0,0,0,0,0,0,0,0,0,0,0,0,0,0,0,0,0
020575,COSTA CAPARICA (EN10-1) CAMPO PEPITA,38.662910,-9.242900,0,0,1,0,,Costa Da Caparíca ( Estrada Nacional 10 - 1 ) Campo Pepita,0,,,020575,,1,,,,Costa da Caparica,,,1503,Almada,15,Setúbal,PT170,AML,,,,,,,,,,,,,,,,,,,0,,,,,,,,,,,,,,,,,0,,0,0,0,0,0,0,0,0,0,0,0,0,0,0,0,0,0
020583,LAZARIM (EN 10-1) (X) VALE FIGUEIRA,38.647413,-9.198172,0,0,1,0,,Cruzamento Entre ( Lazarim ( Estrada Nacional 10 - 1 ) ) E ( Vale Figueira ),0,,,020583,,1,,,,Lazarim,,,1503,Almada,15,Setúbal,PT170,AML,,,,,,,,,,,,,,,,,,,0,,,,,,,,,,,,,,,,,0,,0,0,0,1,0,0,0,0,0,0,0,0,0,0,0,0,0
020584,LAZARIM (EN 10-1) (X) VALE FIGUEIRA,38.647150,-9.198310,0,0,1,0,,Cruzamento Entre ( Lazarim ( Estrada Nacional 10 - 1 ) ) E ( Vale Figueira ),0,,,020584,,1,,,,Lazarim,,,1503,Almada,15,Setúbal,PT170,AML,,,,,,,,,,,,,,,,,,,0,,,,,,,,,,,,,,,,,0,,0,0,0,1,0,0,0,0,0,0,0,0,0,0,0,0,0
020585,SOBREDA R J F DIAS 25 (X) QTA FRANCESA,38.647710,-9.196360,0,0,1,0,,Sobreda ( Cruzamento Entre ( Rua J F Dias 25 ) E ( Quinta Francesa ) ),0,,,020585,,1,,,,Sobreda,,,1503,Almada,15,Setúbal,PT170,AML,,,,,,,,,,,,,,,,,,,0,,,,,,,,,,,,,,,,,0,,0,0,0,0,0,0,0,0,0,0,0,0,0,0,0,0,0
020586,SOBREDA R J F DIAS 25 (X) QTA FRANCESA,38.647600,-9.196430,0,0,1,0,,Sobreda ( Cruzamento Entre ( Rua J F Dias 25 ) E ( Quinta Francesa ) ),0,,,020586,,1,,,,Sobreda,,,1503,Almada,15,Setúbal,PT170,AML,,,,,,,,,,,,,,,,,,,0,,,,,,,,,,,,,,,,,0,,0,0,0,0,0,0,0,0,0,0,0,0,0,0,0,0,0
020589,SOBREDA R PETRÓ A BARROS (IGREJA),38.644660,-9.185280,0,0,1,0,,Sobreda Rua Petró Á Barros ( Igreja ),0,,,020589,,1,,,,Sobreda,,,1503,Almada,15,Setúbal,PT170,AML,,,,,,,,,,,,,,,,,,,0,,,,,,,,,,,,,,,,,0,,0,0,0,0,0,0,0,0,0,0,0,0,0,0,0,0,0
020590,SOBREDA R PETRÓ A BARROS (IGREJA),38.644570,-9.185370,0,0,1,0,,Sobreda Rua Petró Á Barros ( Igreja ),0,,,020590,,1,,,,Sobreda,,,1503,Almada,15,Setúbal,PT170,AML,,,,,,,,,,,,,,,,,,,0,,,,,,,,,,,,,,,,,0,,0,0,0,0,0,0,0,0,0,0,0,0,0,0,0,0,0
020593,SOBREDA (EN10-1) (X) TEXUGO (ROT),38.650480,-9.188790,0,0,1,0,,Cruzamento Entre ( Sobreda ( Estrada Nacional 10 - 1 ) ) E ( Texugo ( Rotunda ) ),0,,,020593,,1,,,,Sobreda,,,1503,Almada,15,Setúbal,PT170,AML,,,,,,,,,,,,,,,,,,,0,,,,,,,,,,,,,,,,,0,,0,0,0,0,0,0,0,0,0,0,0,0,0,0,0,0,0
020594,SOBREDA (EN10-1) (X) TEXUGO (ROT),38.650530,-9.188690,0,0,1,0,,Cruzamento Entre ( Sobreda ( Estrada Nacional 10 - 1 ) ) E ( Texugo ( Rotunda ) ),0,,,020594,,1,,,,Sobreda,,,1503,Almada,15,Setúbal,PT170,AML,,,,,,,,,,,,,,,,,,,0,,,,,,,,,,,,,,,,,0,,0,0,0,0,0,0,0,0,0,0,0,0,0,0,0,0,0
020613,SOBREDA (EN10-1 7A) Bº S JOÃO,38.648530,-9.178320,0,0,1,0,,Sobreda ( Estrada Nacional 10 - 1 7 Á ) Bairro São João,0,,,020613,,1,,,,Sobreda,,,1503,Almada,15,Setúbal,PT170,AML,,,,,,,,,,,,,,,,,,,0,,,,,,,,,,,,,,,,,0,,0,0,0,0,0,0,0,0,0,0,0,0,0,0,0,0,0
020614,SOBREDA (EN10-1 7A) Bº S JOÃO,38.648500,-9.178410,0,0,1,0,,Sobreda ( Estrada Nacional 10 - 1 7 Á ) Bairro São João,0,,,020614,,1,,,,Sobreda,,,1503,Almada,15,Setúbal,PT170,AML,,,,,,,,,,,,,,,,,,,0,,,,,,,,,,,,,,,,,0,,0,0,0,0,0,0,0,0,0,0,0,0,0,0,0,0,0
020619,VL FIGUEIRA R GEN HUMB DELG (X) R POVO,38.642420,-9.174370,0,0,1,0,,Vale Figueira ( Cruzamento Entre ( Rua General Humberto Delgado ) E ( Rua Povo ) ),0,,,020619,,1,,,,Vale Figueira,,,1503,Almada,15,Setúbal,PT170,AML,,,,,,,,,,,,,,,,,,,0,,,,,,,,,,,,,,,,,0,,0,0,0,0,0,0,0,0,0,0,0,0,0,0,0,0,0
020621,VL FIG R VL FIGUEIRA (X) R LUSÍADAS,38.639750,-9.175880,0,0,1,0,,Vale Fig ( Cruzamento Entre ( Rua Vale Figueira ) E ( Rua Lusíadas ) ),0,,,020621,,1,,,,Vale Figueira,,,1503,Almada,15,Setúbal,PT170,AML,,,,,,,,,,,,,,,,,,,0,,,,,,,,,,,,,,,,,0,,0,0,0,0,0,0,0,0,0,0,0,0,0,0,0,0,0
020627,VALE FETALR SIDÓNIO PAIS (X) TR WANDA R,38.631600,-9.182220,0,0,1,0,,Vale Fetal ( Cruzamento Entre ( Rua Sidónio Pais ) E ( Travessa Wanda R ) ),0,,,020627,,1,,,,Vale Fetal,,,1503,Almada,15,Setúbal,PT170,AML,,,,,,,,,,,,,,,,,,,0,,,,,,,,,,,,,,,,,0,,0,0,0,0,0,0,0,0,0,0,0,0,0,0,0,0,0
020637,COSTA CAPARICA (TORRE ARGOLAS) TER P1,38.640597,-9.230326,0,0,1,0,,Costa Da Caparíca ( Torre Argolas ) Terminál ( P 1 ),0,,,020637,,1,,,,Costa da Caparica,,,1503,Almada,15,Setúbal,PT170,AML,,,,,,,,,,,,,,,,,,,0,,,,,,,,,,,,,,,,,0,,0,0,0,0,0,0,0,0,0,0,0,0,0,0,0,0,0
020639,C CAP AV DR ARESTA BRANCO 13 (ROTUNDA),38.643640,-9.232640,0,0,1,0,,Costa Da Caparíca Avenida Doutora Aresta Branco 13 ( Rotunda ),0,,,020639,,1,,,,Costa da Caparica,,,1503,Almada,15,Setúbal,PT170,AML,,,,,,,,,,,,,,,,,,,1,112,,,,,,,,,,,,,,,,0,,0,0,0,0,0,0,0,0,0,0,0,0,0,0,0,0,0
020641,COSTA CAPARICA (IC 20) CEMITÉRIO,38.646540,-9.231500,0,0,1,0,,Costa Da Caparíca ( I. C. 20 ) Cemitério,0,,,020641,,1,,,,Costa da Caparica,,,1503,Almada,15,Setúbal,PT170,AML,,,,,,,,,,,,,,,,,,,0,,,,,,,,,,,,,,,,,0,,0,0,0,0,0,0,0,0,0,0,0,0,0,0,0,0,0
020653,Bº F FOMENTO (R 3 VALES N44),38.668800,-9.185600,0,0,1,0,,Bairro Fundo Fomento ( Rua 3 Vales ( Número 44 ) ),0,,,020653,,1,,,,Bairro Fundo Fomento,,,1503,Almada,15,Setúbal,PT170,AML,,,,,,,,,,,,,,,,,,,0,,,,,,,,,,,,,,,,,0,,0,0,0,0,0,0,0,0,0,0,0,0,0,0,0,0,0
020655,RUA DO AREEIRO (FRT A33),38.650100,-9.201200,0,0,1,0,,Rua Do Areeiro ( Frente Á 33 ),0,,,020655,,1,,,,Almada,,,1503,Almada,15,Setúbal,PT170,AML,,,,,,,,,,,,,,,,,,,0,,,,,,,,,,,,,,,,,0,,0,0,0,1,0,0,0,0,0,0,0,0,0,0,0,0,0
020661,C CAPARICA (AV DR ARESTA BRANCO) MERCADO,38.644480,-9.233450,0,0,1,0,,Costa Da Caparíca ( Avenida Doutora Aresta Branco ) Mercado,0,,,020661,,1,,,,Costa da Caparica,,,1503,Almada,15,Setúbal,PT170,AML,,,,,,,,,,,,,,,,,,,0,,,,,,,,,,,,,,,,,0,,0,0,0,0,0,0,0,0,0,0,0,0,0,0,0,0,0
020663,COSTA CAPARICA (AV D SEBASTIÃO 10),38.642050,-9.232160,0,0,1,0,,Costa Da Caparíca ( Avenida Dom Sebastião 10 ),0,,,020663,,1,,,,Costa da Caparica,,,1503,Almada,15,Setúbal,PT170,AML,,,,,,,,,,,,,,,,,,,0,,,,,,,,,,,,,,,,,0,,0,0,0,0,0,0,0,0,0,0,0,0,0,0,0,0,0
020665,COSTA CAPARICA R DR HORÁCIO S LOURO,38.645170,-9.232213,0,0,1,0,,Costa Da Caparíca Rua Doutor Horácio São Louro,0,,,020665,,1,,,,Almada,,,1503,Almada,15,Setúbal,PT170,AML,,,,,,,,,,,,,,,,,,,0,,,,,,,,,,,,,,,,,0,,0,0,0,0,0,0,0,0,0,0,0,0,0,0,0,0,0
020667,SOBREDA EN10-1 X R QTA FRANCESA 4,38.650370,-9.193540,0,0,1,0,,Sobreda ( Cruzamento Entre ( Estrada Nacional 10 - 1 ) E ( Rua Quinta Francesa 4 ) ),0,,,020667,,1,,,,Almada,,,1503,Almada,15,Setúbal,PT170,AML,,,,,,,,,,,,,,,,,,,0,,,,,,,,,,,,,,,,,0,,0,0,0,1,0,0,0,0,0,0,0,0,0,0,0,0,0
020668,SOBREDA EN10-1 X R QTA FRANCESA 4,38.650440,-9.193730,0,0,1,0,,Sobreda ( Cruzamento Entre ( Estrada Nacional 10 - 1 ) E ( Rua Quinta Francesa 4 ) ),0,,,020668,,1,,,,Almada,,,1503,Almada,15,Setúbal,PT170,AML,,,,,,,,,,,,,,,,,,,0,,,,,,,,,,,,,,,,,0,,0,0,0,1,0,0,0,0,0,0,0,0,0,0,0,0,0
020689,LARANJEIRO (R BENTO JESUS CARAÇA 33A),38.655500,-9.149510,0,0,1,0,,Laranjeiro ( Rua Bento Jesus Caraça 33 Á ),0,,,020689,,1,,,,Laranjeiro,,,1503,Almada,15,Setúbal,PT170,AML,,,,,,,,,,,,,,,,,,,0,,,,,,,,,,,,,,,,,0,,0,0,0,1,0,0,0,0,0,0,0,0,0,0,0,0,0
020693,LARANJEIRO R D DUARTE (PARAL R EUCALIP),38.654100,-9.151780,0,0,1,0,,Laranjeiro Rua Dom Duarte ( Paralélo Rua Eucalip ),0,,,020693,,1,,,,Laranjeiro,,,1503,Almada,15,Setúbal,PT170,AML,,,,,,,,,,,,,,,,,,,0,,,,,,,,,,,,,,,,,0,,0,0,0,1,0,0,0,0,0,0,0,0,0,0,0,0,0
020695,LARANJEIRO (R D DUARTE 14A) MESQUITA,38.653700,-9.149050,0,0,1,0,,Laranjeiro ( Rua Dom Duarte 14 Á ) Mesquita,0,,,020695,,1,,,,Laranjeiro,,,1503,Almada,15,Setúbal,PT170,AML,,,,,,,,,,,,,,,,,,,0,,,,,,,,,,,,,,,,,0,,0,0,0,1,0,0,0,0,0,0,0,0,0,0,0,0,0
020696,LARANJEIRO (R D DUARTE 14A) MESQUITA,38.653700,-9.149080,0,0,1,0,,Laranjeiro ( Rua Dom Duarte 14 Á ) Mesquita,0,,,020696,,1,,,,Laranjeiro,,,1503,Almada,15,Setúbal,PT170,AML,,,,,,,,,,,,,,,,,,,0,,,,,,,,,,,,,,,,,0,,0,0,0,1,0,0,0,0,0,0,0,0,0,0,0,0,0
020703,COSTA CAPARICA (AV D SEBASTIÃO 10),38.642990,-9.232630,0,0,1,0,,Costa Da Caparíca ( Avenida Dom Sebastião 10 ),0,,,020703,,1,,,,Costa da Caparica,,,1503,Almada,15,Setúbal,PT170,AML,,,,,,,,,,,,,,,,,,,0,,,,,,,,,,,,,,,,,0,,0,0,0,0,0,0,0,0,0,0,0,0,0,0,0,0,0
020705,COSTA CAPARICA (TORRE DAS ARGOLAS) TER P5,38.640496,-9.230573,0,0,1,0,,Costa Da Caparíca ( Torre Das Argolas ) Terminál ( P 5 ),0,,,020705,,1,,,,Costa da Caparica,,,1503,Almada,15,Setúbal,PT170,AML,,,,,,,,,,,,,,,,,,,0,,,,,,,,,,,,,,,,,0,,0,0,0,0,0,0,0,0,0,0,0,0,0,0,0,0,0
020727,FEIJÓ ESTR ALGAZ (X) R FERREIRA SOARES,38.648990,-9.165780,0,0,1,0,,Cruzamento Entre ( Feijó Estrada Algaz ) E ( Rua Ferreira Soares ),0,,,020727,,1,,,,Feijó,,,1503,Almada,15,Setúbal,PT170,AML,,,,,,,,,,,,,,,,,,,0,,,,,,,,,,,,,,,,,0,,0,0,0,0,0,0,0,0,0,0,0,0,0,0,0,0,0
020728,FEIJÓ ESTR ALGAZ (X) R FERREIRA SOARES,38.649000,-9.165990,0,0,1,0,,Cruzamento Entre ( Feijó Estrada Algaz ) E ( Rua Ferreira Soares ),0,,,020728,,1,,,,Feijó,,,1503,Almada,15,Setúbal,PT170,AML,,,,,,,,,,,,,,,,,,,0,,,,,,,,,,,,,,,,,0,,0,0,0,0,0,0,0,0,0,0,0,0,0,0,0,0,0
020733,C CAPARICA (AV DR ARESTA BRANCO) MERCADO,38.644040,-9.233200,0,0,1,0,,Costa Da Caparíca ( Avenida Doutora Aresta Branco ) Mercado,0,,,020733,,1,,,,Costa da Caparica,,,1503,Almada,15,Setúbal,PT170,AML,,,,,,,,,,,,,,,,,,,0,,,,,,,,,,,,,,,,,0,,0,0,0,0,0,0,0,0,0,0,0,0,0,0,0,0,0
020735,COSTA CAPARICA (TORRE DAS ARGOLAS) TER P4,38.640560,-9.230441,0,0,1,0,,Costa Da Caparíca ( Torre Das Argolas ) Terminál ( P 4 ),0,,,020735,,1,,,,Costa da Caparica,,,1503,Almada,15,Setúbal,PT170,AML,,,,,,,,,,,,,,,,,,,0,,,,,,,,,,,,,,,,,0,,0,0,0,0,0,0,0,0,0,0,0,0,0,0,0,0,0
020737,COSTA CAPARICA R DR HORÁCIO S LOURO,38.645208,-9.232095,0,0,1,0,,Costa Da Caparíca Rua Doutor Horácio São Louro,0,,,020737,,1,,,,Almada,,,1503,Almada,15,Setúbal,PT170,AML,,,,,,,,,,,,,,,,,,,0,,,,,,,,,,,,,,,,,0,,0,0,0,0,0,0,0,0,0,0,0,0,0,0,0,0,0
020739,CV PIEDADER ANT J GOMES64B (LGO 5 OUT),38.671400,-9.156700,0,0,1,0,,Cóva Piedader António J Gomes 64 B ( Largo 5 Outubro ),0,,,020739,,1,,,,Alenquer,,,1503,Almada,15,Setúbal,PT170,AML,,,,,,,,,,,,,,,,,,,0,,,,,,,,,,,,,,,,,0,,0,0,0,0,0,0,0,0,0,0,0,0,0,0,0,0,0
020740,CV PIEDADER ANT J GOMES64B (LGO 5 OUT),38.671440,-9.156890,0,0,1,0,,Cóva Piedader António J Gomes 64 B ( Largo 5 Outubro ),0,,,020740,,1,,,,Cova da Piedade,,,1503,Almada,15,Setúbal,PT170,AML,,,,,,,,,,,,,,,,,,,0,,,,,,,,,,,,,,,,,0,,0,0,0,1,0,0,0,0,0,0,0,0,0,0,0,0,0
020743,COVA PIEDADE (R PEDRO NUNES N6),38.674500,-9.159590,0,0,1,0,,Cova Piedade ( Rua Pedro Nunes ( Número 6 ) ),0,,,020743,,1,,,,Cova da Piedade,,,1503,Almada,15,Setúbal,PT170,AML,,,,,,,,,,,,,,,,,,,0,,,,,,,,,,,,,,,,,0,,0,0,0,1,0,0,0,0,0,0,0,0,0,0,0,0,0
020744,COVA PIEDADE (R PEDRO NUNES N6),38.674435,-9.159601,0,0,1,0,,Cova Piedade ( Rua Pedro Nunes ( Número 6 ) ),0,,,020744,,1,,,,Cova da Piedade,,,1503,Almada,15,Setúbal,PT170,AML,,,,,,,,,,,,,,,,,,,0,,,,,,,,,,,,,,,,,0,,0,0,0,1,0,0,0,0,0,0,0,0,0,0,0,0,0
020747,R RAMIRO FERRÃO ESCOLA SEC A ANDRADE,38.674430,-9.164290,0,0,1,0,,Rua Ramiro Ferrão Escola Secundária Á Andrade,0,,,020747,,1,,,,Almada,,,1503,Almada,15,Setúbal,PT170,AML,,,,,,,,,,,,,,,,,,,0,,,,,,,,,,,,,,,,,0,,0,0,0,1,0,0,0,0,0,0,0,0,0,0,0,0,0
020748,R RAMIRO FERRÃO ESCOLA SEC A ANDRADE,38.674500,-9.164290,0,0,1,0,,Rua Ramiro Ferrão Escola Secundária Á Andrade,0,,,020748,,1,,,,Almada,,,1503,Almada,15,Setúbal,PT170,AML,,,,,,,,,,,,,,,,,,,0,,,,,,,,,,,,,,,,,0,,0,0,0,1,0,0,0,0,0,0,0,0,0,0,0,0,0
020801,CH CAPARICA (ESTR MATAS) TREMOCEIRA,38.600400,-9.188140,0,0,1,0,,Charnéca De Caparíca ( Estrada Matas ) Tremoceira,0,,,020801,,1,,,,Alenquer,,,1503,Almada,15,Setúbal,PT170,AML,,,,,,,,,,,,,,,,,,,0,,,,,,,,,,,,,,,,,0,,0,0,0,0,0,0,0,0,0,0,0,0,0,0,0,0,0
020802,CH CAPARICA (ESTR MATAS) TREMOCEIRA,38.600500,-9.188140,0,0,1,0,,Charnéca De Caparíca ( Estrada Matas ) Tremoceira,0,,,020802,,1,,,,Alenquer,,,1503,Almada,15,Setúbal,PT170,AML,,,,,,,,,,,,,,,,,,,0,,,,,,,,,,,,,,,,,0,,0,0,0,0,0,0,0,0,0,0,0,0,0,0,0,0,0
020803,CH CAPARICA (ESTR MATAS (X) R SOL),38.60500,-9.197490,0,0,1,0,,Charnéca De Caparíca ( Cruzamento Entre ( Estrada Matas ) E ( Rua Sol ) ),0,,,020803,,1,,,,Alenquer,,,1503,Almada,15,Setúbal,PT170,AML,,,,,,,,,,,,,,,,,,,0,,,,,,,,,,,,,,,,,0,,0,0,0,0,0,0,0,0,0,0,0,0,0,0,0,0,0
020804,CH CAPARICA (ESTR MATAS (X) R SOL),38.605000,-9.197540,0,0,1,0,,Charnéca De Caparíca ( Cruzamento Entre ( Estrada Matas ) E ( Rua Sol ) ),0,,,020804,,1,,,,Alenquer,,,1503,Almada,15,Setúbal,PT170,AML,,,,,,,,,,,,,,,,,,,0,,,,,,,,,,,,,,,,,0,,0,0,0,0,0,0,0,0,0,0,0,0,0,0,0,0,0
020805,CH CAPARICA (ESTR MATAS 29),38.607000,-9.198310,0,0,1,0,,Charnéca De Caparíca ( Estrada Matas 29 ),0,,,020805,,1,,,,Alenquer,,,1503,Almada,15,Setúbal,PT170,AML,,,,,,,,,,,,,,,,,,,0,,,,,,,,,,,,,,,,,0,,0,0,0,0,0,0,0,0,0,0,0,0,0,0,0,0,0
020806,CH CAPARICA (ESTR MATAS 29),38.607000,-9.198350,0,0,1,0,,Charnéca De Caparíca ( Estrada Matas 29 ),0,,,020806,,1,,,,Alenquer,,,1503,Almada,15,Setúbal,PT170,AML,,,,,,,,,,,,,,,,,,,0,,,,,,,,,,,,,,,,,0,,0,0,0,0,0,0,0,0,0,0,0,0,0,0,0,0,0
020809,ESTR F TELHA (X) PRAIA PESCADOR,38.610920,-9.207590,0,0,1,0,,Cruzamento Entre ( Estrada Fonte Da Telha ) E ( Praia Pescador ),0,,,020809,,1,,,,Almada,,,1503,Almada,15,Setúbal,PT170,AML,,,,,,,,,,,,,,,,,,,0,,,,,,,,,,,,,,,,,0,,0,0,0,0,0,0,0,0,0,0,0,0,0,0,0,0,0
020810,ESTR F TELHA (X) PRAIA PESCADOR,38.610850,-9.207820,0,0,1,0,,Cruzamento Entre ( Estrada Fonte Da Telha ) E ( Praia Pescador ),0,,,020810,,1,,,,Almada,,,1503,Almada,15,Setúbal,PT170,AML,,,,,,,,,,,,,,,,,,,0,,,,,,,,,,,,,,,,,0,,0,0,0,0,0,0,0,0,0,0,0,0,0,0,0,0,0
020811,ESTR FONTE TELHA (X) PRAIA CASTELO,38.615290,-9.210870,0,0,1,0,,Cruzamento Entre ( Estrada Fonte Telha ) E ( Praia Castelo ),0,,,020811,,1,,,,Almada,,,1503,Almada,15,Setúbal,PT170,AML,,,,,,,,,,,,,,,,,,,0,,,,,,,,,,,,,,,,,0,,0,0,0,0,0,0,0,0,0,0,0,0,0,0,0,0,0
020812,ESTR FONTE TELHA (X) PRAIA CASTELO,38.615320,-9.210690,0,0,1,0,,Cruzamento Entre ( Estrada Fonte Telha ) E ( Praia Castelo ),0,,,020812,,1,,,,Almada,,,1503,Almada,15,Setúbal,PT170,AML,,,,,,,,,,,,,,,,,,,0,,,,,,,,,,,,,,,,,0,,0,0,0,0,0,0,0,0,0,0,0,0,0,0,0,0,0
020813,ESTR F TELHA (X) PRAIA RAINHA II,38.617850,-9.212390,0,0,1,0,,Cruzamento Entre ( Estrada Fonte Da Telha ) E ( Praia Rainha Segunda ),0,,,020813,,1,,,,Almada,,,1503,Almada,15,Setúbal,PT170,AML,,,,,,,,,,,,,,,,,,,0,,,,,,,,,,,,,,,,,0,,0,0,0,0,0,0,0,0,0,0,0,0,0,0,0,0,0
020814,ESTR F TELHA (X) PRAIA RAINHA II,38.617790,-9.212630,0,0,1,0,,Cruzamento Entre ( Estrada Fonte Da Telha ) E ( Praia Rainha Segunda ),0,,,020814,,1,,,,Almada,,,1503,Almada,15,Setúbal,PT170,AML,,,,,,,,,,,,,,,,,,,0,,,,,,,,,,,,,,,,,0,,0,0,0,0,0,0,0,0,0,0,0,0,0,0,0,0,0
020815,ESTR FONTE TELHA (X) PRAIA RAINHA I,38.619890,-9.213570,0,0,1,0,,Cruzamento Entre ( Estrada Fonte Telha ) E ( Praia Rainha Primeira ),0,,,020815,,1,,,,Almada,,,1503,Almada,15,Setúbal,PT170,AML,,,,,,,,,,,,,,,,,,,0,,,,,,,,,,,,,,,,,0,,0,0,0,0,0,0,0,0,0,0,0,0,0,0,0,0,0
020816,ESTR FONTE TELHA (X) PRAIA RAINHA I,38.619960,-9.213790,0,0,1,0,,Cruzamento Entre ( Estrada Fonte Telha ) E ( Praia Rainha Primeira ),0,,,020816,,1,,,,Almada,,,1503,Almada,15,Setúbal,PT170,AML,,,,,,,,,,,,,,,,,,,0,,,,,,,,,,,,,,,,,0,,0,0,0,0,0,0,0,0,0,0,0,0,0,0,0,0,0
020817,ESTR FONTE TELHA (X) PRAIA RIVIERA,38.622920,-9.215290,0,0,1,0,,Cruzamento Entre ( Estrada Fonte Telha ) E ( Praia Riviera ),0,,,020817,,1,,,,Almada,,,1503,Almada,15,Setúbal,PT170,AML,,,,,,,,,,,,,,,,,,,0,,,,,,,,,,,,,,,,,0,,0,0,0,0,0,0,0,0,0,0,0,0,0,0,0,0,0
020818,ESTR FONTE TELHA (X) PRAIA RIVIERA,38.622850,-9.215450,0,0,1,0,,Cruzamento Entre ( Estrada Fonte Telha ) E ( Praia Riviera ),0,,,020818,,1,,,,Almada,,,1503,Almada,15,Setúbal,PT170,AML,,,,,,,,,,,,,,,,,,,0,,,,,,,,,,,,,,,,,0,,0,0,0,0,0,0,0,0,0,0,0,0,0,0,0,0,0
020819,ESTR FONTE TELHA (X) PRAIA MATA,38.626460,-9.218300,0,0,1,0,,Cruzamento Entre ( Estrada Fonte Telha ) E ( Praia Mata ),0,,,020819,,1,,,,Almada,,,1503,Almada,15,Setúbal,PT170,AML,,,,,,,,,,,,,,,,,,,0,,,,,,,,,,,,,,,,,0,,0,0,0,0,0,0,0,0,0,0,0,0,0,0,0,0,0
020820,ESTR FONTE TELHA (X) PRAIA MATA,38.626520,-9.218130,0,0,1,0,,Cruzamento Entre ( Estrada Fonte Telha ) E ( Praia Mata ),0,,,020820,,1,,,,Almada,,,1503,Almada,15,Setúbal,PT170,AML,,,,,,,,,,,,,,,,,,,0,,,,,,,,,,,,,,,,,0,,0,0,0,0,0,0,0,0,0,0,0,0,0,0,0,0,0
020825,ESTR F TELHA (X) PQ CAMP PIEDENSE,38.630320,-9.222180,0,0,1,0,,Cruzamento Entre ( Estrada Fonte Da Telha ) E ( Parque De Campismo Piedense ),0,,,020825,,1,,,,Almada,,,1503,Almada,15,Setúbal,PT170,AML,,,,,,,,,,,,,,,,,,,0,,,,,,,,,,,,,,,,,0,,0,0,0,0,0,0,0,0,0,0,0,0,0,0,0,0,0
020826,ESTR F TELHA (X) PQ CAMP PIEDENSE,38.630300,-9.222370,0,0,1,0,,Cruzamento Entre ( Estrada Fonte Da Telha ) E ( Parque De Campismo Piedense ),0,,,020826,,1,,,,Almada,,,1503,Almada,15,Setúbal,PT170,AML,,,,,,,,,,,,,,,,,,,0,,,,,,,,,,,,,,,,,0,,0,0,0,0,0,0,0,0,0,0,0,0,0,0,0,0,0
020827,ESTR F TELHA (X) PRAIA SAÚDE,38.631770,-9.223860,0,0,1,0,,Cruzamento Entre ( Estrada Fonte Da Telha ) E ( Praia Saúde ),0,,,020827,,1,,,,Almada,,,1503,Almada,15,Setúbal,PT170,AML,,,,,,,,,,,,,,,,,,,0,,,,,,,,,,,,,,,,,0,,0,0,0,0,0,0,0,0,0,0,0,0,0,0,0,0,0
020828,ESTR F TELHA (X) PRAIA SAÚDE,38.631840,-9.223790,0,0,1,0,,Cruzamento Entre ( Estrada Fonte Da Telha ) E ( Praia Saúde ),0,,,020828,,1,,,,Almada,,,1503,Almada,15,Setúbal,PT170,AML,,,,,,,,,,,,,,,,,,,0,,,,,,,,,,,,,,,,,0,,0,0,0,0,0,0,0,0,0,0,0,0,0,0,0,0,0
020831,ESTR FLOREST (X) PQ CAMP (ESTR F TELHA),38.634700,-9.226770,0,0,1,0,,Cruzamento Entre ( Estrada Florestal ) E ( Parque De Campismo ( Estrada Fonte Da Telha ) ),0,,,020831,,1,,,,Almada,,,1503,Almada,15,Setúbal,PT170,AML,,,,,,,,,,,,,,,,,,,0,,,,,,,,,,,,,,,,,0,,0,0,0,0,0,0,0,0,0,0,0,0,0,0,0,0,0
020832,ESTR FLOREST (X) PQ CAMP (ESTR F TELHA),38.634550,-9.226880,0,0,1,0,,Cruzamento Entre ( Estrada Florestal ) E ( Parque De Campismo ( Estrada Fonte Da Telha ) ),0,,,020832,,1,,,,Almada,,,1503,Almada,15,Setúbal,PT170,AML,,,,,,,,,,,,,,,,,,,0,,,,,,,,,,,,,,,,,0,,0,0,0,0,0,0,0,0,0,0,0,0,0,0,0,0,0
020837,QTA TEXUGO (R HELENA FÉLIX N5),38.625800,-9.202580,0,0,1,0,,Quinta Texugo ( Rua Helena Félix ( Número 5 ) ),0,,,020837,,1,,,,Almada,,,1503,Almada,15,Setúbal,PT170,AML,,,,,,,,,,,,,,,,,,,0,,,,,,,,,,,,,,,,,0,,0,0,0,0,0,0,0,0,0,0,0,0,0,0,0,0,0
020843,PORTO BRANDÃO (R 1º MAIO N4),38.674000,-9.207190,0,0,1,0,,Porto Brandão ( Rua Primeiro De Maio ( Número 4 ) ),0,,,020843,,1,,,,Porto Brandão,,,1503,Almada,15,Setúbal,PT170,AML,,,,,,,,,,,,,,,,,,,0,,,,,,,,,,,,,,,,,0,,0,0,0,0,0,0,0,0,0,0,0,0,0,0,0,0,0
020844,PORTO BRANDÃO (R 1º MAIO N4),38.674000,-9.207150,0,0,1,0,,Porto Brandão ( Rua Primeiro De Maio ( Número 4 ) ),0,,,020844,,1,,,,Porto Brandão,,,1503,Almada,15,Setúbal,PT170,AML,,,,,,,,,,,,,,,,,,,0,,,,,,,,,,,,,,,,,0,,0,0,0,0,0,0,0,0,0,0,0,0,0,0,0,0,0
020845,PORTO BRANDÃO (LARGO CARLOS MAIA 7A),38.669300,-9.205820,0,0,1,0,,Porto Brandão ( Largo Carlos Maia 7 Á ),0,,,020845,,1,,,,Porto Brandão,,,1503,Almada,15,Setúbal,PT170,AML,,,,,,,,,,,,,,,,,,,0,,,,,,,,,,,,,,,,,0,,0,0,0,0,0,0,0,0,0,0,0,0,0,0,0,0,0
020846,PORTO BRANDÃO (LARGO CARLOS MAIA 7A),38.669300,-9.205870,0,0,1,0,,Porto Brandão ( Largo Carlos Maia 7 Á ),0,,,020846,,1,,,,Porto Brandão,,,1503,Almada,15,Setúbal,PT170,AML,,,,,,,,,,,,,,,,,,,0,,,,,,,,,,,,,,,,,0,,0,0,0,0,0,0,0,0,0,0,0,0,0,0,0,0,0
020849,CH CAP (PALHAIS R HENR SANTANA) C SAÚDE,38.626600,-9.199470,0,0,1,0,,Charnéca De Caparíca ( Palhais Rua Henrique Santana ) Centro De Saúde,0,,,020849,,1,,,,Charneca da Caparica,,,1503,Almada,15,Setúbal,PT170,AML,,,,,,,,,,,,,,,,,,,0,,,,,,,,,,,,,,,,,0,,0,0,0,0,0,0,0,0,0,0,0,0,0,0,0,0,0
020850,CH CAP (PALHAIS R HENR SANTANA) C SAÚDE,38.626600,-9.199510,0,0,1,0,,Charnéca De Caparíca ( Palhais Rua Henrique Santana ) Centro De Saúde,0,,,020850,,1,,,,Charneca da Caparica,,,1503,Almada,15,Setúbal,PT170,AML,,,,,,,,,,,,,,,,,,,0,,,,,,,,,,,,,,,,,0,,0,0,0,0,0,0,0,0,0,0,0,0,0,0,0,0,0
020851,CH CAP (PALHAIS R HENR SANTANA 63A),38.625700,-9.200670,0,0,1,0,,Charnéca De Caparíca ( Palhais Rua Henrique Santana 63 Á ),0,,,020851,,1,,,,Charneca da Caparica,,,1503,Almada,15,Setúbal,PT170,AML,,,,,,,,,,,,,,,,,,,0,,,,,,,,,,,,,,,,,0,,0,0,0,0,0,0,0,0,0,0,0,0,0,0,0,0,0
020852,CH CAP (PALHAIS R HENR SANTANA 63A),38.625600,-9.200640,0,0,1,0,,Charnéca De Caparíca ( Palhais Rua Henrique Santana 63 Á ),0,,,020852,,1,,,,Charneca da Caparica,,,1503,Almada,15,Setúbal,PT170,AML,,,,,,,,,,,,,,,,,,,0,,,,,,,,,,,,,,,,,0,,0,0,0,0,0,0,0,0,0,0,0,0,0,0,0,0,0
020857,LARANJEIRO (R D JOSÉ C MELO) DEPÓS ÁGUA,38.660890,-9.154970,0,0,1,0,,Laranjeiro ( Rua Dom José Cê Melo ) Depósito Água,0,,,020857,,1,,,,Laranjeiro,,,1503,Almada,15,Setúbal,PT170,AML,,,,,,,,,,,,,,,,,,,0,,,,,,,,,,,,,,,,,0,,0,0,0,0,0,0,0,0,0,0,0,0,0,0,0,0,0
020859,LARANJEIRO (R BORGES REGO 7A),38.654950,-9.155090,0,0,1,0,,Laranjeiro ( Rua Borges Rego 7 Á ),0,,,020859,,1,,,,Laranjeiro,,,1503,Almada,15,Setúbal,PT170,AML,,,,,,,,,,,,,,,,,,,0,,,,,,,,,,,,,,,,,0,,0,0,0,1,0,0,0,0,0,0,0,0,0,0,0,0,0
020865,LARANJEIRO (PÇA LOPES GRAÇA 13B),38.654100,-9.154570,0,0,1,0,,Laranjeiro ( Práça Lopes Graça 13 B ),0,,,020865,,1,,,,Laranjeiro,,,1503,Almada,15,Setúbal,PT170,AML,,,,,,,,,,,,,,,,,,,0,,,,,,,,,,,,,,,,,0,,0,0,0,1,0,0,0,0,0,0,0,0,0,0,0,0,0
020879,QUINTINHAS R QTA CIMA (X) R 1º MAIO,38.610540,-9.179730,0,0,1,0,,Quintinhas ( Cruzamento Entre ( Rua Quinta Cima ) E ( Rua Primeiro De Maio ) ),0,,,020879,,1,,,,Quintinhas,,,1503,Almada,15,Setúbal,PT170,AML,,,,,,,,,,,,,,,,,,,0,,,,,,,,,,,,,,,,,0,,0,0,0,0,0,0,0,0,0,0,0,0,0,0,0,0,0
020880,QUINTINHAS R QTA CIMA (X) R 1º MAIO,38.610400,-9.179650,0,0,1,0,,Quintinhas ( Cruzamento Entre ( Rua Quinta Cima ) E ( Rua Primeiro De Maio ) ),0,,,020880,,1,,,,Quintinhas,,,1503,Almada,15,Setúbal,PT170,AML,,,,,,,,,,,,,,,,,,,0,,,,,,,,,,,,,,,,,0,,0,0,0,0,0,0,0,0,0,0,0,0,0,0,0,0,0
020881,QUINTINHAS R QTA CIMA (X) R 1º MAIO,38.610700,-9.179220,0,0,1,0,,Quintinhas ( Cruzamento Entre ( Rua Quinta Cima ) E ( Rua Primeiro De Maio ) ),0,,,020881,,1,,,,Alenquer,,,1503,Almada,15,Setúbal,PT170,AML,,,,,,,,,,,,,,,,,,,0,,,,,,,,,,,,,,,,,0,,0,0,0,0,0,0,0,0,0,0,0,0,0,0,0,0,0
020882,QUINTINHAS R QTA CIMA (X) R 1º MAIO,38.610758,-9.179250,0,0,1,0,,Quintinhas ( Cruzamento Entre ( Rua Quinta Cima ) E ( Rua Primeiro De Maio ) ),0,,,020882,,1,,,,Quintinhas,,,1503,Almada,15,Setúbal,PT170,AML,,,,,,,,,,,,,,,,,,,0,,,,,,,,,,,,,,,,,0,,0,0,0,0,0,0,0,0,0,0,0,0,0,0,0,0,0
020883,QUINTINHAS R QTA CIMA (X) R 1º MAIO,38.611100,-9.179370,0,0,1,0,,Quintinhas ( Cruzamento Entre ( Rua Quinta Cima ) E ( Rua Primeiro De Maio ) ),0,,,020883,,1,,,,Quintinhas,,,1503,Almada,15,Setúbal,PT170,AML,,,,,,,,,,,,,,,,,,,0,,,,,,,,,,,,,,,,,0,,0,0,0,0,0,0,0,0,0,0,0,0,0,0,0,0,0
020884,QUINTINHAS R QTA CIMA (X) R 1º MAIO,38.611200,-9.179370,0,0,1,0,,Quintinhas ( Cruzamento Entre ( Rua Quinta Cima ) E ( Rua Primeiro De Maio ) ),0,,,020884,,1,,,,Quintinhas,,,1503,Almada,15,Setúbal,PT170,AML,,,,,,,,,,,,,,,,,,,0,,,,,,,,,,,,,,,,,0,,0,0,0,0,0,0,0,0,0,0,0,0,0,0,0,0,0
020885,CH CAPARICA (R PINHEIRINHO N51),38.608088,-9.182503,0,0,1,0,,Charnéca De Caparíca ( Rua Pinheirinho ( Número 51 ) ),0,,,020885,,1,,,,Charneca da Caparica,,,1503,Almada,15,Setúbal,PT170,AML,,,,,,,,,,,,,,,,,,,0,,,,,,,,,,,,,,,,,0,,0,0,0,0,0,0,0,0,0,0,0,0,0,0,0,0,0
020889,CH CAPARICA (R FRED FREITAS) PAVILHÃO,38.605400,-9.181610,0,0,1,0,,Charnéca De Caparíca ( Rua Frederico Freitas ) Pavilhão,0,,,020889,,1,,,,Charneca da Caparica,,,1503,Almada,15,Setúbal,PT170,AML,,,,,,,,,,,,,,,,,,,0,,,,,,,,,,,,,,,,,0,,0,0,0,1,0,0,0,0,0,0,0,0,0,0,0,0,0
020890,CH CAPARICA (R FRED FREITAS) PAVILHÃO,38.605400,-9.181660,0,0,1,0,,Charnéca De Caparíca ( Rua Frederico Freitas ) Pavilhão,0,,,020890,,1,,,,Charneca da Caparica,,,1503,Almada,15,Setúbal,PT170,AML,,,,,,,,,,,,,,,,,,,0,,,,,,,,,,,,,,,,,0,,0,0,0,1,0,0,0,0,0,0,0,0,0,0,0,0,0
020899,CH CAPARICA (R PEDRO COSTA) TREMOCEIRA,38.600930,-9.185738,0,0,1,0,,Charnéca De Caparíca ( Rua Pedro Costa ) Tremoceira,0,,,020899,,1,,,,Charneca da Caparica,,,1503,Almada,15,Setúbal,PT170,AML,,,,,,,,,,,,,,,,,,,0,,,,,,,,,,,,,,,,,0,,0,0,0,0,0,0,0,0,0,0,0,0,0,0,0,0,0
020901,CHAR CAP (RUA HERÓIS 25 DE ABRIL 32),38.607500,-9.178690,0,0,1,0,,Charnéca De Caparíca ( Rua Heróis 25 De Abril 32 ),0,,,020901,,1,,,,Alenquer,,,1503,Almada,15,Setúbal,PT170,AML,,,,,,,,,,,,,,,,,,,0,,,,,,,,,,,,,,,,,0,,0,0,0,0,0,0,0,0,0,0,0,0,0,0,0,0,0
020905,AV BELVERDE (X) AV PINHAL AROEIRA,38.586700,-9.164600,0,0,1,0,,Cruzamento Entre ( Avenida Belverde ) E ( Avenida Pinhal Aroeira ),0,,,020905,,1,,,,Almada,,,1503,Almada,15,Setúbal,PT170,AML,,,,,,,,,,,,,,,,,,,0,,,,,,,,,,,,,,,,,0,,0,0,0,0,0,0,0,0,0,0,0,0,0,0,0,0,0
020906,AV BELVERDE (X) AV PINHAL AROEIRA,38.586540,-9.164460,0,0,1,0,,Cruzamento Entre ( Avenida Belverde ) E ( Avenida Pinhal Aroeira ),0,,,020906,,1,,,,Almada,,,1503,Almada,15,Setúbal,PT170,AML,,,,,,,,,,,,,,,,,,,0,,,,,,,,,,,,,,,,,0,,0,0,0,0,0,0,0,0,0,0,0,0,0,0,0,0,0
020907,VL MILHAÇOS R QTA CIMA (X) QTA QUEIMADA,38.614900,-9.175110,0,0,1,0,,Vale Milhaços ( Cruzamento Entre ( Rua Quinta Cima ) E ( Quinta Queimada ) ),0,,,020907,,1,,,,Vale de Milhaços,,,1503,Almada,15,Setúbal,PT170,AML,,,,,,,,,,,,,,,,,,,0,,,,,,,,,,,,,,,,,0,,0,0,0,0,0,0,0,0,0,0,0,0,0,0,0,0,0
020908,VL MILHAÇOS R QTA CIMA (X) QTA QUEIMADA,38.614920,-9.175270,0,0,1,0,,Vale Milhaços ( Cruzamento Entre ( Rua Quinta Cima ) E ( Quinta Queimada ) ),0,,,020908,,1,,,,Vale de Milhaços,,,1503,Almada,15,Setúbal,PT170,AML,,,,,,,,,,,,,,,,,,,0,,,,,,,,,,,,,,,,,0,,0,0,0,0,0,0,0,0,0,0,0,0,0,0,0,0,0
020909,MARISOL (AV FONTE TELHA N41A),38.600530,-9.176590,0,0,1,0,,Marisol ( Avenida Fonte Telha ( Número 41 Á ) ),0,,,020909,,1,,,,Marisol,,,1503,Almada,15,Setúbal,PT170,AML,,,,,,,,,,,,,,,,,,,0,,,,,,,,,,,,,,,,,0,,0,0,0,0,0,0,0,0,0,0,0,0,0,0,0,0,0
020910,MARISOL (AV FONTE TELHA N41A),38.600730,-9.176560,0,0,1,0,,Marisol ( Avenida Fonte Telha ( Número 41 Á ) ),0,,,020910,,1,,,,Marisol,,,1503,Almada,15,Setúbal,PT170,AML,,,,,,,,,,,,,,,,,,,0,,,,,,,,,,,,,,,,,0,,0,0,0,0,0,0,0,0,0,0,0,0,0,0,0,0,0
